name,aggregate_rating,rating_text,votes,average_cost_for_two,price_range,cuisines,cuisine_count,places,locality,region,city,latitude,longitude,cuisine_African,cuisine_American,cuisine_Asian,cuisine_BBQ,cuisine_Bakery,cuisine_Bar Food,cuisine_Belgian,cuisine_Beverages,cuisine_Brazilian,cuisine_British,cuisine_Burger,cuisine_Cafe,cuisine_Cafe Food,cuisine_Cape Malay,cuisine_Caribbean,cuisine_Chinese,cuisine_Coffee and Tea,cuisine_Contemporary,cuisine_Continental,cuisine_Cuban,cuisine_Deli,cuisine_Desserts,cuisine_Drinks Only,cuisine_Durban,cuisine_Ethiopian,cuisine_European,cuisine_Fast Food,cuisine_Finger Food,cuisine_Fish and Chips,cuisine_French,cuisine_Frozen Yogurt,cuisine_Fusion,cuisine_German,cuisine_Greek,cuisine_Grill,cuisine_Healthy Food,cuisine_Ice Cream,cuisine_Indian,cuisine_International,cuisine_Irish,cuisine_Italian,cuisine_Japanese,cuisine_Juices,cuisine_Korean,cuisine_Latin American,cuisine_Lebanese,cuisine_Malaysian,cuisine_Mediterranean,cuisine_Mexican,cuisine_Middle Eastern,cuisine_Modern European,cuisine_Moroccan,cuisine_Pakistani,cuisine_Patisserie,cuisine_Pizza,cuisine_Portuguese,cuisine_Pub Food,cuisine_Salad,cuisine_Sandwich,cuisine_Seafood,cuisine_South African,cuisine_Spanish,cuisine_Steak,cuisine_Street Food,cuisine_Sushi,cuisine_Tapas,cuisine_Tea,cuisine_Tex-Mex,cuisine_Thai,cuisine_Turkish,cuisine_Vegetarian,cuisine_Vietnamese
La Colombe,4.9,Excellent,144,645,4,"French, Asian",2,None,Constantia,Southern Suburbs,Cape Town,-34.012639,18.402608,0,0,1,0,0,0,0,0,0,0,0,0,0,0,0,0,0,0,0,0,0,0,0,0,0,0,0,0,0,1,0,0,0,0,0,0,0,0,0,0,0,0,0,0,0,0,0,0,0,0,0,0,0,0,0,0,0,0,0,0,0,0,0,0,0,0,0,0,0,0,0,0
The Potluck Club,4.9,Excellent,395,600,4,"European, Contemporary",2,Old Biscuit Mill,Woodstock,City Bowl,Cape Town,-33.927589,18.457068,0,0,0,0,0,0,0,0,0,0,0,0,0,0,0,0,0,1,0,0,0,0,0,0,0,1,0,0,0,0,0,0,0,0,0,0,0,0,0,0,0,0,0,0,0,0,0,0,0,0,0,0,0,0,0,0,0,0,0,0,0,0,0,0,0,0,0,0,0,0,0,0
Moro Gelato,4.8,Excellent,67,80,1,"Desserts, Ice Cream",2,None,CBD,City Bowl,Cape Town,-33.924108138899996,18.4173174575,0,0,0,0,0,0,0,0,0,0,0,0,0,0,0,0,0,0,0,0,0,1,0,0,0,0,0,0,0,0,0,0,0,0,0,0,1,0,0,0,0,0,0,0,0,0,0,0,0,0,0,0,0,0,0,0,0,0,0,0,0,0,0,0,0,0,0,0,0,0,0,0
Unframed Ice Cream,4.7,Excellent,102,40,1,Ice Cream,1,None,Gardens,City Bowl,Cape Town,-33.928691406,18.4120974874,0,0,0,0,0,0,0,0,0,0,0,0,0,0,0,0,0,0,0,0,0,0,0,0,0,0,0,0,0,0,0,0,0,0,0,0,1,0,0,0,0,0,0,0,0,0,0,0,0,0,0,0,0,0,0,0,0,0,0,0,0,0,0,0,0,0,0,0,0,0,0,0
Jarryds,4.7,Excellent,468,230,3,"Cafe, Burger",2,None,Sea Point,Atlantic Seaboard,Cape Town,-33.921453,18.381997,0,0,0,0,0,0,0,0,0,0,1,1,0,0,0,0,0,0,0,0,0,0,0,0,0,0,0,0,0,0,0,0,0,0,0,0,0,0,0,0,0,0,0,0,0,0,0,0,0,0,0,0,0,0,0,0,0,0,0,0,0,0,0,0,0,0,0,0,0,0,0,0
The Test Kitchen,4.7,Excellent,236,2800,4,"Continental, European",2,Old Biscuit Mill,Woodstock,City Bowl,Cape Town,-33.9273728073,18.4569058567,0,0,0,0,0,0,0,0,0,0,0,0,0,0,0,0,0,0,1,0,0,0,0,0,0,1,0,0,0,0,0,0,0,0,0,0,0,0,0,0,0,0,0,0,0,0,0,0,0,0,0,0,0,0,0,0,0,0,0,0,0,0,0,0,0,0,0,0,0,0,0,0
The Velvet Cake Co.,4.6,Excellent,87,165,2,"Bakery, Desserts",2,None,CBD,City Bowl,Cape Town,-33.919299793200004,18.4215120971,0,0,0,0,1,0,0,0,0,0,0,0,0,0,0,0,0,0,0,0,0,1,0,0,0,0,0,0,0,0,0,0,0,0,0,0,0,0,0,0,0,0,0,0,0,0,0,0,0,0,0,0,0,0,0,0,0,0,0,0,0,0,0,0,0,0,0,0,0,0,0,0
Warwick Wine Estate,4.6,Excellent,104,440,4,"South African, Mediterranean, Cafe",3,None,Stellenbosch,Winelands,Cape Town,-33.840835,18.864158,0,0,0,0,0,0,0,0,0,0,0,1,0,0,0,0,0,0,0,0,0,0,0,0,0,0,0,0,0,0,0,0,0,0,0,0,0,0,0,0,0,0,0,0,0,0,0,1,0,0,0,0,0,0,0,0,0,0,0,0,1,0,0,0,0,0,0,0,0,0,0,0
Foxcroft,4.6,Excellent,100,800,4,"French, Tapas",2,None,Constantia,Southern Suburbs,Cape Town,-34.024651,18.430238,0,0,0,0,0,0,0,0,0,0,0,0,0,0,0,0,0,0,0,0,0,0,0,0,0,0,0,0,0,1,0,0,0,0,0,0,0,0,0,0,0,0,0,0,0,0,0,0,0,0,0,0,0,0,0,0,0,0,0,0,0,0,0,0,0,1,0,0,0,0,0,0
Chefs Warehouse at Beau Constantia,4.6,Excellent,102,1000,4,"Tapas, Contemporary",2,Beau Constantia Wine Estate,Constantia,Southern Suburbs,Cape Town,-34.01368,18.406417,0,0,0,0,0,0,0,0,0,0,0,0,0,0,0,0,0,1,0,0,0,0,0,0,0,0,0,0,0,0,0,0,0,0,0,0,0,0,0,0,0,0,0,0,0,0,0,0,0,0,0,0,0,0,0,0,0,0,0,0,0,0,0,0,0,1,0,0,0,0,0,0
La Mouette,4.5,Excellent,247,600,4,"Mediterranean, French",2,None,Sea Point,Atlantic Seaboard,Cape Town,-33.921299,18.382693,0,0,0,0,0,0,0,0,0,0,0,0,0,0,0,0,0,0,0,0,0,0,0,0,0,0,0,0,0,1,0,0,0,0,0,0,0,0,0,0,0,0,0,0,0,0,0,1,0,0,0,0,0,0,0,0,0,0,0,0,0,0,0,0,0,0,0,0,0,0,0,0
Bistro Sixteen82,4.5,Excellent,205,500,4,"French, Asian, European",3,Steenberg Hotel,Constantia,Southern Suburbs,Cape Town,-34.071391,18.425231,0,0,1,0,0,0,0,0,0,0,0,0,0,0,0,0,0,0,0,0,0,0,0,0,0,1,0,0,0,1,0,0,0,0,0,0,0,0,0,0,0,0,0,0,0,0,0,0,0,0,0,0,0,0,0,0,0,0,0,0,0,0,0,0,0,0,0,0,0,0,0,0
Four & Twenty,4.5,Excellent,339,250,3,"Cafe, Bakery, Desserts, Deli",4,None,Wynberg,Southern Suburbs,Cape Town,-34.006755,18.463339,0,0,0,0,1,0,0,0,0,0,0,1,0,0,0,0,0,0,0,0,1,1,0,0,0,0,0,0,0,0,0,0,0,0,0,0,0,0,0,0,0,0,0,0,0,0,0,0,0,0,0,0,0,0,0,0,0,0,0,0,0,0,0,0,0,0,0,0,0,0,0,0
Chefs Warehouse & Canteen,4.5,Excellent,127,700,4,Mediterranean,1,None,CBD,City Bowl,Cape Town,-33.920819418899995,18.4182314202,0,0,0,0,0,0,0,0,0,0,0,0,0,0,0,0,0,0,0,0,0,0,0,0,0,0,0,0,0,0,0,0,0,0,0,0,0,0,0,0,0,0,0,0,0,0,0,1,0,0,0,0,0,0,0,0,0,0,0,0,0,0,0,0,0,0,0,0,0,0,0,0
Constantia Glen,4.5,Excellent,119,350,4,"European, Contemporary",2,None,Constantia,Southern Suburbs,Cape Town,-34.015129,18.414913,0,0,0,0,0,0,0,0,0,0,0,0,0,0,0,0,0,1,0,0,0,0,0,0,0,1,0,0,0,0,0,0,0,0,0,0,0,0,0,0,0,0,0,0,0,0,0,0,0,0,0,0,0,0,0,0,0,0,0,0,0,0,0,0,0,0,0,0,0,0,0,0
My Sugar,4.5,Excellent,195,125,2,"Cafe, Patisserie, Bakery, Desserts",4,None,Sea Point,Atlantic Seaboard,Cape Town,-33.921692,18.382759,0,0,0,0,1,0,0,0,0,0,0,1,0,0,0,0,0,0,0,0,0,1,0,0,0,0,0,0,0,0,0,0,0,0,0,0,0,0,0,0,0,0,0,0,0,0,0,0,0,0,0,0,0,1,0,0,0,0,0,0,0,0,0,0,0,0,0,0,0,0,0,0
The Creamery,4.5,Excellent,388,110,2,"Desserts, Ice Cream",2,None,Newlands,Southern Suburbs,Cape Town,-33.970286,18.46195,0,0,0,0,0,0,0,0,0,0,0,0,0,0,0,0,0,0,0,0,0,1,0,0,0,0,0,0,0,0,0,0,0,0,0,0,1,0,0,0,0,0,0,0,0,0,0,0,0,0,0,0,0,0,0,0,0,0,0,0,0,0,0,0,0,0,0,0,0,0,0,0
Giulio's Café,4.5,Excellent,97,200,3,Mediterranean,1,None,De Waterkant,City Bowl,Cape Town,-33.9189475656,18.421895988299998,0,0,0,0,0,0,0,0,0,0,0,0,0,0,0,0,0,0,0,0,0,0,0,0,0,0,0,0,0,0,0,0,0,0,0,0,0,0,0,0,0,0,0,0,0,0,0,1,0,0,0,0,0,0,0,0,0,0,0,0,0,0,0,0,0,0,0,0,0,0,0,0
Kloof Street House,4.4,Very Good,455,350,4,Mediterranean,1,None,Gardens,City Bowl,Cape Town,-33.9285,18.4125,0,0,0,0,0,0,0,0,0,0,0,0,0,0,0,0,0,0,0,0,0,0,0,0,0,0,0,0,0,0,0,0,0,0,0,0,0,0,0,0,0,0,0,0,0,0,0,1,0,0,0,0,0,0,0,0,0,0,0,0,0,0,0,0,0,0,0,0,0,0,0,0
The Cousins Trattoria,4.4,Very Good,148,250,3,Italian,1,None,CBD,City Bowl,Cape Town,-33.9263971756,18.4213863686,0,0,0,0,0,0,0,0,0,0,0,0,0,0,0,0,0,0,0,0,0,0,0,0,0,0,0,0,0,0,0,0,0,0,0,0,0,0,0,0,1,0,0,0,0,0,0,0,0,0,0,0,0,0,0,0,0,0,0,0,0,0,0,0,0,0,0,0,0,0,0,0
Willoughby & Co.,4.4,Very Good,576,570,4,"Seafood, Japanese, Sushi",3,Victoria Wharf,V & A Waterfront,Atlantic Seaboard,Cape Town,-33.9041666667,18.421,0,0,0,0,0,0,0,0,0,0,0,0,0,0,0,0,0,0,0,0,0,0,0,0,0,0,0,0,0,0,0,0,0,0,0,0,0,0,0,0,0,1,0,0,0,0,0,0,0,0,0,0,0,0,0,0,0,0,0,1,0,0,0,0,1,0,0,0,0,0,0,0
The Velvet Cake Co.,4.4,Very Good,126,160,2,"Cafe, Desserts, Bakery",3,None,Bellville,Northern Suburbs,Cape Town,-33.868300673200004,18.641179986300003,0,0,0,0,1,0,0,0,0,0,0,1,0,0,0,0,0,0,0,0,0,1,0,0,0,0,0,0,0,0,0,0,0,0,0,0,0,0,0,0,0,0,0,0,0,0,0,0,0,0,0,0,0,0,0,0,0,0,0,0,0,0,0,0,0,0,0,0,0,0,0,0
New York Bagels,4.4,Very Good,136,150,2,"Cafe, Bakery, Deli, Coffee and Tea, Sandwich",5,None,Zonnebloem,City Bowl,Cape Town,-33.928421,18.423894,0,0,0,0,1,0,0,0,0,0,0,1,0,0,0,0,1,0,0,0,1,0,0,0,0,0,0,0,0,0,0,0,0,0,0,0,0,0,0,0,0,0,0,0,0,0,0,0,0,0,0,0,0,0,0,0,0,0,1,0,0,0,0,0,0,0,0,0,0,0,0,0
Hemelhuijs,4.4,Very Good,121,250,3,"Cafe, Continental",2,None,De Waterkant,City Bowl,Cape Town,-33.9185032447,18.4198504686,0,0,0,0,0,0,0,0,0,0,0,1,0,0,0,0,0,0,1,0,0,0,0,0,0,0,0,0,0,0,0,0,0,0,0,0,0,0,0,0,0,0,0,0,0,0,0,0,0,0,0,0,0,0,0,0,0,0,0,0,0,0,0,0,0,0,0,0,0,0,0,0
Greenhouse - The Cellars Hohenort,4.4,Very Good,81,1450,4,European,1,The Cellars-Hohenhort,Constantia,Southern Suburbs,Cape Town,-34.002226,18.434345,0,0,0,0,0,0,0,0,0,0,0,0,0,0,0,0,0,0,0,0,0,0,0,0,0,1,0,0,0,0,0,0,0,0,0,0,0,0,0,0,0,0,0,0,0,0,0,0,0,0,0,0,0,0,0,0,0,0,0,0,0,0,0,0,0,0,0,0,0,0,0,0
Burger & Lobster,4.4,Very Good,205,368,4,"Seafood, Burger",2,None,CBD,City Bowl,Cape Town,-33.9213861417,18.418015167100002,0,0,0,0,0,0,0,0,0,0,1,0,0,0,0,0,0,0,0,0,0,0,0,0,0,0,0,0,0,0,0,0,0,0,0,0,0,0,0,0,0,0,0,0,0,0,0,0,0,0,0,0,0,0,0,0,0,0,0,1,0,0,0,0,0,0,0,0,0,0,0,0
El Burro,4.4,Very Good,454,350,4,Mexican,1,None,Green Point,Atlantic Seaboard,Cape Town,-33.9083402691,18.410956598800002,0,0,0,0,0,0,0,0,0,0,0,0,0,0,0,0,0,0,0,0,0,0,0,0,0,0,0,0,0,0,0,0,0,0,0,0,0,0,0,0,0,0,0,0,0,0,0,0,1,0,0,0,0,0,0,0,0,0,0,0,0,0,0,0,0,0,0,0,0,0,0,0
Homespun,4.4,Very Good,148,450,4,South African,1,None,Table View,West Coast,Cape Town,-33.820996,18.476966,0,0,0,0,0,0,0,0,0,0,0,0,0,0,0,0,0,0,0,0,0,0,0,0,0,0,0,0,0,0,0,0,0,0,0,0,0,0,0,0,0,0,0,0,0,0,0,0,0,0,0,0,0,0,0,0,0,0,0,0,1,0,0,0,0,0,0,0,0,0,0,0
The Foodbarn,4.4,Very Good,133,450,4,"European, Mediterranean",2,None,Noordhoek,South Peninsula,Cape Town,-34.097271,18.377411,0,0,0,0,0,0,0,0,0,0,0,0,0,0,0,0,0,0,0,0,0,0,0,0,0,1,0,0,0,0,0,0,0,0,0,0,0,0,0,0,0,0,0,0,0,0,0,1,0,0,0,0,0,0,0,0,0,0,0,0,0,0,0,0,0,0,0,0,0,0,0,0
Tasting Room at Creation,4.4,Very Good,56,500,4,"South African, European, Seafood, Contemporary",4,None,Hermanus,Overberg,Cape Town,-34.331099,19.326576,0,0,0,0,0,0,0,0,0,0,0,0,0,0,0,0,0,1,0,0,0,0,0,0,0,1,0,0,0,0,0,0,0,0,0,0,0,0,0,0,0,0,0,0,0,0,0,0,0,0,0,0,0,0,0,0,0,0,0,1,1,0,0,0,0,0,0,0,0,0,0,0
Myoga - Vineyard Hotel,4.4,Very Good,136,450,4,"Mediterranean, Asian, African",3,Vineyard Hotel & Spa,Newlands,Southern Suburbs,Cape Town,-33.978285,18.459997,1,0,1,0,0,0,0,0,0,0,0,0,0,0,0,0,0,0,0,0,0,0,0,0,0,0,0,0,0,0,0,0,0,0,0,0,0,0,0,0,0,0,0,0,0,0,0,1,0,0,0,0,0,0,0,0,0,0,0,0,0,0,0,0,0,0,0,0,0,0,0,0
Villa 47,4.3,Very Good,152,300,4,International,1,None,CBD,City Bowl,Cape Town,-33.9192216132,18.4203128144,0,0,0,0,0,0,0,0,0,0,0,0,0,0,0,0,0,0,0,0,0,0,0,0,0,0,0,0,0,0,0,0,0,0,0,0,0,0,1,0,0,0,0,0,0,0,0,0,0,0,0,0,0,0,0,0,0,0,0,0,0,0,0,0,0,0,0,0,0,0,0,0
The Shortmarket Club,4.3,Very Good,75,584,4,French,1,None,CBD,City Bowl,Cape Town,-33.921381411999995,18.4187437221,0,0,0,0,0,0,0,0,0,0,0,0,0,0,0,0,0,0,0,0,0,0,0,0,0,0,0,0,0,1,0,0,0,0,0,0,0,0,0,0,0,0,0,0,0,0,0,0,0,0,0,0,0,0,0,0,0,0,0,0,0,0,0,0,0,0,0,0,0,0,0,0
Kitima Restaurant,4.3,Very Good,144,520,4,"Japanese, Asian, Thai",3,None,Hout Bay,Atlantic Seaboard,Cape Town,-34.032212,18.356502,0,0,1,0,0,0,0,0,0,0,0,0,0,0,0,0,0,0,0,0,0,0,0,0,0,0,0,0,0,0,0,0,0,0,0,0,0,0,0,0,0,1,0,0,0,0,0,0,0,0,0,0,0,0,0,0,0,0,0,0,0,0,0,0,0,0,0,0,1,0,0,0
South China Dim Sum Bar,4.3,Very Good,176,300,4,"Asian, Chinese, Vietnamese",3,None,CBD,City Bowl,Cape Town,-33.926515409299995,18.4144062549,0,0,1,0,0,0,0,0,0,0,0,0,0,0,0,1,0,0,0,0,0,0,0,0,0,0,0,0,0,0,0,0,0,0,0,0,0,0,0,0,0,0,0,0,0,0,0,0,0,0,0,0,0,0,0,0,0,0,0,0,0,0,0,0,0,0,0,0,0,0,0,1
Thali,4.3,Very Good,60,400,4,"Indian, Tapas",2,None,Gardens,City Bowl,Cape Town,-33.929101,18.410869,0,0,0,0,0,0,0,0,0,0,0,0,0,0,0,0,0,0,0,0,0,0,0,0,0,0,0,0,0,0,0,0,0,0,0,0,0,1,0,0,0,0,0,0,0,0,0,0,0,0,0,0,0,0,0,0,0,0,0,0,0,0,0,0,0,1,0,0,0,0,0,0
Royale Eatery,4.3,Very Good,560,350,4,"Burger, Pizza",2,None,CBD,City Bowl,Cape Town,-33.92636101,18.4146885574,0,0,0,0,0,0,0,0,0,0,1,0,0,0,0,0,0,0,0,0,0,0,0,0,0,0,0,0,0,0,0,0,0,0,0,0,0,0,0,0,0,0,0,0,0,0,0,0,0,0,0,0,0,0,1,0,0,0,0,0,0,0,0,0,0,0,0,0,0,0,0,0
Jerry's Burger Bar,4.3,Very Good,342,250,3,"Burger, American",2,None,Gardens,City Bowl,Cape Town,-33.929022,18.410769,0,1,0,0,0,0,0,0,0,0,1,0,0,0,0,0,0,0,0,0,0,0,0,0,0,0,0,0,0,0,0,0,0,0,0,0,0,0,0,0,0,0,0,0,0,0,0,0,0,0,0,0,0,0,0,0,0,0,0,0,0,0,0,0,0,0,0,0,0,0,0,0
Kleinskys Delicatessen,4.3,Very Good,165,215,3,"Bakery, American",2,None,Sea Point,Atlantic Seaboard,Cape Town,-33.922261,18.38144,0,1,0,0,1,0,0,0,0,0,0,0,0,0,0,0,0,0,0,0,0,0,0,0,0,0,0,0,0,0,0,0,0,0,0,0,0,0,0,0,0,0,0,0,0,0,0,0,0,0,0,0,0,0,0,0,0,0,0,0,0,0,0,0,0,0,0,0,0,0,0,0
Truth Coffee,4.3,Very Good,612,300,4,Cafe,1,None,CBD,City Bowl,Cape Town,-33.9284964252,18.4228602424,0,0,0,0,0,0,0,0,0,0,0,1,0,0,0,0,0,0,0,0,0,0,0,0,0,0,0,0,0,0,0,0,0,0,0,0,0,0,0,0,0,0,0,0,0,0,0,0,0,0,0,0,0,0,0,0,0,0,0,0,0,0,0,0,0,0,0,0,0,0,0,0
The Gin Bar,4.3,Very Good,63,250,3,Drinks Only,1,None,CBD,City Bowl,Cape Town,-33.922613,18.417114,0,0,0,0,0,0,0,0,0,0,0,0,0,0,0,0,0,0,0,0,0,0,1,0,0,0,0,0,0,0,0,0,0,0,0,0,0,0,0,0,0,0,0,0,0,0,0,0,0,0,0,0,0,0,0,0,0,0,0,0,0,0,0,0,0,0,0,0,0,0,0,0
Starlings Cafe,4.3,Very Good,345,220,3,Cafe,1,None,Claremont,Southern Suburbs,Cape Town,-33.980049,18.481986,0,0,0,0,0,0,0,0,0,0,0,1,0,0,0,0,0,0,0,0,0,0,0,0,0,0,0,0,0,0,0,0,0,0,0,0,0,0,0,0,0,0,0,0,0,0,0,0,0,0,0,0,0,0,0,0,0,0,0,0,0,0,0,0,0,0,0,0,0,0,0,0
Honest Chocolate Cafe,4.3,Very Good,250,160,2,"Cafe, Desserts",2,None,CBD,City Bowl,Cape Town,-33.9228331177,18.4169342369,0,0,0,0,0,0,0,0,0,0,0,1,0,0,0,0,0,0,0,0,0,1,0,0,0,0,0,0,0,0,0,0,0,0,0,0,0,0,0,0,0,0,0,0,0,0,0,0,0,0,0,0,0,0,0,0,0,0,0,0,0,0,0,0,0,0,0,0,0,0,0,0
The Loading Bay,4.3,Very Good,146,275,3,Cafe,1,None,Green Point,Atlantic Seaboard,Cape Town,-33.917519164699996,18.4173130989,0,0,0,0,0,0,0,0,0,0,0,1,0,0,0,0,0,0,0,0,0,0,0,0,0,0,0,0,0,0,0,0,0,0,0,0,0,0,0,0,0,0,0,0,0,0,0,0,0,0,0,0,0,0,0,0,0,0,0,0,0,0,0,0,0,0,0,0,0,0,0,0
De Grendel Restaurant and Wine Estate,4.3,Very Good,124,480,4,"European, South African",2,None,Plattekloof,Northern Suburbs,Cape Town,-33.851066,18.571784,0,0,0,0,0,0,0,0,0,0,0,0,0,0,0,0,0,0,0,0,0,0,0,0,0,1,0,0,0,0,0,0,0,0,0,0,0,0,0,0,0,0,0,0,0,0,0,0,0,0,0,0,0,0,0,0,0,0,0,0,1,0,0,0,0,0,0,0,0,0,0,0
Dash - Queen Victoria Hotel,4.3,Very Good,66,930,4,"European, French, Contemporary, Fusion, Modern European, Tea",6,None,V & A Waterfront,Atlantic Seaboard,Cape Town,-33.905351,18.419571,0,0,0,0,0,0,0,0,0,0,0,0,0,0,0,0,0,1,0,0,0,0,0,0,0,1,0,0,0,1,0,1,0,0,0,0,0,0,0,0,0,0,0,0,0,0,0,0,0,0,1,0,0,0,0,0,0,0,0,0,0,0,0,0,0,0,1,0,0,0,0,0
Tokara Restaurant,4.3,Very Good,154,550,4,African,1,Tokara Wine Estate,Stellenbosch,Winelands,Cape Town,-33.917126,18.919839,1,0,0,0,0,0,0,0,0,0,0,0,0,0,0,0,0,0,0,0,0,0,0,0,0,0,0,0,0,0,0,0,0,0,0,0,0,0,0,0,0,0,0,0,0,0,0,0,0,0,0,0,0,0,0,0,0,0,0,0,0,0,0,0,0,0,0,0,0,0,0,0
Pigalle,4.3,Very Good,246,500,4,Seafood,1,None,Green Point,Atlantic Seaboard,Cape Town,-33.9131876304,18.416927531400002,0,0,0,0,0,0,0,0,0,0,0,0,0,0,0,0,0,0,0,0,0,0,0,0,0,0,0,0,0,0,0,0,0,0,0,0,0,0,0,0,0,0,0,0,0,0,0,0,0,0,0,0,0,0,0,0,0,0,0,1,0,0,0,0,0,0,0,0,0,0,0,0
Nobu - One&Only,4.3,Very Good,153,950,4,"Japanese, Asian, Seafood, Sushi",4,One and Only Hotel,V & A Waterfront,Atlantic Seaboard,Cape Town,-33.907256,18.4176,0,0,1,0,0,0,0,0,0,0,0,0,0,0,0,0,0,0,0,0,0,0,0,0,0,0,0,0,0,0,0,0,0,0,0,0,0,0,0,0,0,1,0,0,0,0,0,0,0,0,0,0,0,0,0,0,0,0,0,1,0,0,0,0,1,0,0,0,0,0,0,0
Giovanni's,4.3,Very Good,166,150,2,Cafe,1,None,Green Point,Atlantic Seaboard,Cape Town,-33.9079395794,18.4097968787,0,0,0,0,0,0,0,0,0,0,0,1,0,0,0,0,0,0,0,0,0,0,0,0,0,0,0,0,0,0,0,0,0,0,0,0,0,0,0,0,0,0,0,0,0,0,0,0,0,0,0,0,0,0,0,0,0,0,0,0,0,0,0,0,0,0,0,0,0,0,0,0
Nourish'd,4.3,Very Good,42,160,2,"Cafe, Healthy Food",2,None,Gardens,City Bowl,Cape Town,-33.936684,18.405142,0,0,0,0,0,0,0,0,0,0,0,1,0,0,0,0,0,0,0,0,0,0,0,0,0,0,0,0,0,0,0,0,0,0,0,1,0,0,0,0,0,0,0,0,0,0,0,0,0,0,0,0,0,0,0,0,0,0,0,0,0,0,0,0,0,0,0,0,0,0,0,0
Woodies,4.2,Very Good,240,180,2,Burger,1,V & A Foodmarket,V & A Waterfront,Atlantic Seaboard,Cape Town,-33.906397,18.419219,0,0,0,0,0,0,0,0,0,0,1,0,0,0,0,0,0,0,0,0,0,0,0,0,0,0,0,0,0,0,0,0,0,0,0,0,0,0,0,0,0,0,0,0,0,0,0,0,0,0,0,0,0,0,0,0,0,0,0,0,0,0,0,0,0,0,0,0,0,0,0,0
The Larder,4.2,Very Good,163,150,2,"Cafe, Deli, Bakery, Burger, Desserts, Healthy Food, Juices",7,None,Claremont,Southern Suburbs,Cape Town,-33.981822,18.464501,0,0,0,0,1,0,0,0,0,0,1,1,0,0,0,0,0,0,0,0,1,1,0,0,0,0,0,0,0,0,0,0,0,0,0,1,0,0,0,0,0,0,1,0,0,0,0,0,0,0,0,0,0,0,0,0,0,0,0,0,0,0,0,0,0,0,0,0,0,0,0,0
Jason Bakery,4.2,Very Good,321,180,2,"Cafe, Bakery",2,None,CBD,City Bowl,Cape Town,-33.9245151513,18.4145708755,0,0,0,0,1,0,0,0,0,0,0,1,0,0,0,0,0,0,0,0,0,0,0,0,0,0,0,0,0,0,0,0,0,0,0,0,0,0,0,0,0,0,0,0,0,0,0,0,0,0,0,0,0,0,0,0,0,0,0,0,0,0,0,0,0,0,0,0,0,0,0,0
tashas,4.2,Very Good,204,320,4,"Cafe, Mediterranean",2,Constantia Village,Constantia,Southern Suburbs,Cape Town,-34.021699,18.444128,0,0,0,0,0,0,0,0,0,0,0,1,0,0,0,0,0,0,0,0,0,0,0,0,0,0,0,0,0,0,0,0,0,0,0,0,0,0,0,0,0,0,0,0,0,0,0,1,0,0,0,0,0,0,0,0,0,0,0,0,0,0,0,0,0,0,0,0,0,0,0,0
Babel,4.2,Very Good,103,530,4,International,1,Babylonstoren Wine Estate,Franschhoek,Winelands,Cape Town,-33.827639,18.924892,0,0,0,0,0,0,0,0,0,0,0,0,0,0,0,0,0,0,0,0,0,0,0,0,0,0,0,0,0,0,0,0,0,0,0,0,0,0,1,0,0,0,0,0,0,0,0,0,0,0,0,0,0,0,0,0,0,0,0,0,0,0,0,0,0,0,0,0,0,0,0,0
Bocca,4.2,Very Good,224,280,3,Pizza,1,None,CBD,City Bowl,Cape Town,-33.9224953716,18.4166378528,0,0,0,0,0,0,0,0,0,0,0,0,0,0,0,0,0,0,0,0,0,0,0,0,0,0,0,0,0,0,0,0,0,0,0,0,0,0,0,0,0,0,0,0,0,0,0,0,0,0,0,0,0,0,1,0,0,0,0,0,0,0,0,0,0,0,0,0,0,0,0,0
Oasis - Mount Nelson Hotel,4.2,Very Good,45,450,4,"European, Grill",2,Mount Nelson Hotel,Gardens,City Bowl,Cape Town,-33.93161,18.412494,0,0,0,0,0,0,0,0,0,0,0,0,0,0,0,0,0,0,0,0,0,0,0,0,0,1,0,0,0,0,0,0,0,0,1,0,0,0,0,0,0,0,0,0,0,0,0,0,0,0,0,0,0,0,0,0,0,0,0,0,0,0,0,0,0,0,0,0,0,0,0,0
Baia Seafood Restaurant,4.2,Very Good,177,700,4,"Seafood, Grill",2,Victoria Wharf,V & A Waterfront,Atlantic Seaboard,Cape Town,-33.903522,18.420459,0,0,0,0,0,0,0,0,0,0,0,0,0,0,0,0,0,0,0,0,0,0,0,0,0,0,0,0,0,0,0,0,0,0,1,0,0,0,0,0,0,0,0,0,0,0,0,0,0,0,0,0,0,0,0,0,0,0,0,1,0,0,0,0,0,0,0,0,0,0,0,0
NV 80,4.2,Very Good,213,550,4,Grill,1,None,Sea Point,Atlantic Seaboard,Cape Town,-33.920772,18.38357,0,0,0,0,0,0,0,0,0,0,0,0,0,0,0,0,0,0,0,0,0,0,0,0,0,0,0,0,0,0,0,0,0,0,1,0,0,0,0,0,0,0,0,0,0,0,0,0,0,0,0,0,0,0,0,0,0,0,0,0,0,0,0,0,0,0,0,0,0,0,0,0
Gold Restaurant,4.2,Very Good,61,650,4,"African, Cape Malay",2,None,Green Point,Atlantic Seaboard,Cape Town,-33.91283,18.419094,1,0,0,0,0,0,0,0,0,0,0,0,0,1,0,0,0,0,0,0,0,0,0,0,0,0,0,0,0,0,0,0,0,0,0,0,0,0,0,0,0,0,0,0,0,0,0,0,0,0,0,0,0,0,0,0,0,0,0,0,0,0,0,0,0,0,0,0,0,0,0,0
The Creamery,4.2,Very Good,110,110,2,"Desserts, Ice Cream",2,None,Green Point,Atlantic Seaboard,Cape Town,-33.9040931407,18.3990827948,0,0,0,0,0,0,0,0,0,0,0,0,0,0,0,0,0,0,0,0,0,1,0,0,0,0,0,0,0,0,0,0,0,0,0,0,1,0,0,0,0,0,0,0,0,0,0,0,0,0,0,0,0,0,0,0,0,0,0,0,0,0,0,0,0,0,0,0,0,0,0,0
House of H,4.2,Very Good,62,300,4,"Healthy Food, Street Food, Burger, Grill",4,None,CBD,City Bowl,Cape Town,-33.9224934241,18.4179574996,0,0,0,0,0,0,0,0,0,0,1,0,0,0,0,0,0,0,0,0,0,0,0,0,0,0,0,0,0,0,0,0,0,0,1,1,0,0,0,0,0,0,0,0,0,0,0,0,0,0,0,0,0,0,0,0,0,0,0,0,0,0,0,1,0,0,0,0,0,0,0,0
Hokey Poke,4.2,Very Good,67,250,3,Sushi,1,None,CBD,City Bowl,Cape Town,-33.924324,18.420435,0,0,0,0,0,0,0,0,0,0,0,0,0,0,0,0,0,0,0,0,0,0,0,0,0,0,0,0,0,0,0,0,0,0,0,0,0,0,0,0,0,0,0,0,0,0,0,0,0,0,0,0,0,0,0,0,0,0,0,0,0,0,0,0,1,0,0,0,0,0,0,0
Anatoli,4.2,Very Good,81,400,4,"Turkish, Middle Eastern",2,None,Green Point,Atlantic Seaboard,Cape Town,-33.9148233892,18.4188774973,0,0,0,0,0,0,0,0,0,0,0,0,0,0,0,0,0,0,0,0,0,0,0,0,0,0,0,0,0,0,0,0,0,0,0,0,0,0,0,0,0,0,0,0,0,0,0,0,0,1,0,0,0,0,0,0,0,0,0,0,0,0,0,0,0,0,0,0,0,1,0,0
Haiku,4.2,Very Good,195,450,4,"Japanese, Seafood, Sushi",3,None,CBD,City Bowl,Cape Town,-33.9235216816,18.419030048,0,0,0,0,0,0,0,0,0,0,0,0,0,0,0,0,0,0,0,0,0,0,0,0,0,0,0,0,0,0,0,0,0,0,0,0,0,0,0,0,0,1,0,0,0,0,0,0,0,0,0,0,0,0,0,0,0,0,0,1,0,0,0,0,1,0,0,0,0,0,0,0
Waterkloof Restaurant,4.2,Very Good,98,700,4,"French, Contemporary",2,None,Somerset West,Helderberg,Cape Town,-34.107974,18.880439,0,0,0,0,0,0,0,0,0,0,0,0,0,0,0,0,0,1,0,0,0,0,0,0,0,0,0,0,0,1,0,0,0,0,0,0,0,0,0,0,0,0,0,0,0,0,0,0,0,0,0,0,0,0,0,0,0,0,0,0,0,0,0,0,0,0,0,0,0,0,0,0
96 Winery Road,4.2,Very Good,103,410,4,African,1,None,Stellenbosch,Winelands,Cape Town,-34.027737,18.808944,1,0,0,0,0,0,0,0,0,0,0,0,0,0,0,0,0,0,0,0,0,0,0,0,0,0,0,0,0,0,0,0,0,0,0,0,0,0,0,0,0,0,0,0,0,0,0,0,0,0,0,0,0,0,0,0,0,0,0,0,0,0,0,0,0,0,0,0,0,0,0,0
Carne,4.2,Very Good,137,500,4,"Italian, Grill",2,None,CBD,City Bowl,Cape Town,-33.926393559,18.4158087149,0,0,0,0,0,0,0,0,0,0,0,0,0,0,0,0,0,0,0,0,0,0,0,0,0,0,0,0,0,0,0,0,0,0,1,0,0,0,0,0,1,0,0,0,0,0,0,0,0,0,0,0,0,0,0,0,0,0,0,0,0,0,0,0,0,0,0,0,0,0,0,0
Jordan Restaurant,4.2,Very Good,81,600,4,African,1,Jordan Wine Farm,Stellenbosch,Winelands,Cape Town,-33.942992,18.745105,1,0,0,0,0,0,0,0,0,0,0,0,0,0,0,0,0,0,0,0,0,0,0,0,0,0,0,0,0,0,0,0,0,0,0,0,0,0,0,0,0,0,0,0,0,0,0,0,0,0,0,0,0,0,0,0,0,0,0,0,0,0,0,0,0,0,0,0,0,0,0,0
Foliage Restaurant,4.2,Very Good,58,400,4,"French, Contemporary",2,None,Franschhoek,Winelands,Cape Town,-33.9127221332,19.1213996708,0,0,0,0,0,0,0,0,0,0,0,0,0,0,0,0,0,1,0,0,0,0,0,0,0,0,0,0,0,1,0,0,0,0,0,0,0,0,0,0,0,0,0,0,0,0,0,0,0,0,0,0,0,0,0,0,0,0,0,0,0,0,0,0,0,0,0,0,0,0,0,0
OBI Restaurant,4.2,Very Good,75,200,3,"Japanese, Sushi",2,None,CBD,City Bowl,Cape Town,-33.9196511847,18.4222738445,0,0,0,0,0,0,0,0,0,0,0,0,0,0,0,0,0,0,0,0,0,0,0,0,0,0,0,0,0,0,0,0,0,0,0,0,0,0,0,0,0,1,0,0,0,0,0,0,0,0,0,0,0,0,0,0,0,0,0,0,0,0,0,0,1,0,0,0,0,0,0,0
StarDust Theatrical Dining,4.2,Very Good,145,450,4,Mediterranean,1,None,Woodstock,City Bowl,Cape Town,-33.92764,18.434479,0,0,0,0,0,0,0,0,0,0,0,0,0,0,0,0,0,0,0,0,0,0,0,0,0,0,0,0,0,0,0,0,0,0,0,0,0,0,0,0,0,0,0,0,0,0,0,1,0,0,0,0,0,0,0,0,0,0,0,0,0,0,0,0,0,0,0,0,0,0,0,0
The Black Sheep Restaurant,4.2,Very Good,162,450,4,"European, Continental",2,None,Gardens,City Bowl,Cape Town,-33.934065,18.407477,0,0,0,0,0,0,0,0,0,0,0,0,0,0,0,0,0,0,1,0,0,0,0,0,0,1,0,0,0,0,0,0,0,0,0,0,0,0,0,0,0,0,0,0,0,0,0,0,0,0,0,0,0,0,0,0,0,0,0,0,0,0,0,0,0,0,0,0,0,0,0,0
Overture,4.2,Very Good,77,750,4,European,1,Hidden Valley Wine Estate,Stellenbosch,Winelands,Cape Town,-34.0207583333,18.8530222222,0,0,0,0,0,0,0,0,0,0,0,0,0,0,0,0,0,0,0,0,0,0,0,0,0,1,0,0,0,0,0,0,0,0,0,0,0,0,0,0,0,0,0,0,0,0,0,0,0,0,0,0,0,0,0,0,0,0,0,0,0,0,0,0,0,0,0,0,0,0,0,0
The Fat Butcher,4.2,Very Good,89,250,3,"Burger, Grill, Steak",3,None,Stellenbosch,Winelands,Cape Town,-33.93702,18.863821,0,0,0,0,0,0,0,0,0,0,1,0,0,0,0,0,0,0,0,0,0,0,0,0,0,0,0,0,0,0,0,0,0,0,1,0,0,0,0,0,0,0,0,0,0,0,0,0,0,0,0,0,0,0,0,0,0,0,0,0,0,0,1,0,0,0,0,0,0,0,0,0
Cheyne's,4.2,Very Good,100,605,4,"International, Asian",2,None,Hout Bay,Atlantic Seaboard,Cape Town,-34.0445663516,18.3596982434,0,0,1,0,0,0,0,0,0,0,0,0,0,0,0,0,0,0,0,0,0,0,0,0,0,0,0,0,0,0,0,0,0,0,0,0,0,0,1,0,0,0,0,0,0,0,0,0,0,0,0,0,0,0,0,0,0,0,0,0,0,0,0,0,0,0,0,0,0,0,0,0
Fork,4.2,Very Good,162,250,3,Mediterranean,1,None,CBD,City Bowl,Cape Town,-33.9225535174,18.4189935029,0,0,0,0,0,0,0,0,0,0,0,0,0,0,0,0,0,0,0,0,0,0,0,0,0,0,0,0,0,0,0,0,0,0,0,0,0,0,0,0,0,0,0,0,0,0,0,1,0,0,0,0,0,0,0,0,0,0,0,0,0,0,0,0,0,0,0,0,0,0,0,0
Yoco Eatery,4.2,Very Good,92,180,2,"Cafe, Burger, Contemporary, International",4,None,Durbanville,Northern Suburbs,Cape Town,-33.8316844147,18.6487662792,0,0,0,0,0,0,0,0,0,0,1,1,0,0,0,0,0,1,0,0,0,0,0,0,0,0,0,0,0,0,0,0,0,0,0,0,0,0,1,0,0,0,0,0,0,0,0,0,0,0,0,0,0,0,0,0,0,0,0,0,0,0,0,0,0,0,0,0,0,0,0,0
Cuvée Restaurant,4.2,Very Good,52,450,4,"South African, Contemporary, Desserts, Frozen Yogurt, Grill, African",6,None,Stellenbosch,Winelands,Cape Town,-33.871805,18.820603,1,0,0,0,0,0,0,0,0,0,0,0,0,0,0,0,0,1,0,0,0,1,0,0,0,0,0,0,0,0,1,0,0,0,1,0,0,0,0,0,0,0,0,0,0,0,0,0,0,0,0,0,0,0,0,0,0,0,0,0,1,0,0,0,0,0,0,0,0,0,0,0
Blacksmith's Kitchen @ Pearl Mountain,4.2,Very Good,66,300,4,"Mediterranean, Contemporary, Pizza",3,Pearl Mountain Wine Estate,Paarl,Winelands,Cape Town,-33.708557,18.957218,0,0,0,0,0,0,0,0,0,0,0,0,0,0,0,0,0,1,0,0,0,0,0,0,0,0,0,0,0,0,0,0,0,0,0,0,0,0,0,0,0,0,0,0,0,0,0,1,0,0,0,0,0,0,1,0,0,0,0,0,0,0,0,0,0,0,0,0,0,0,0,0
Cafe Paradiso,4.1,Very Good,267,400,4,Italian,1,None,Gardens,City Bowl,Cape Town,-33.934333333299996,18.4075,0,0,0,0,0,0,0,0,0,0,0,0,0,0,0,0,0,0,0,0,0,0,0,0,0,0,0,0,0,0,0,0,0,0,0,0,0,0,0,0,1,0,0,0,0,0,0,0,0,0,0,0,0,0,0,0,0,0,0,0,0,0,0,0,0,0,0,0,0,0,0,0
Jerry's Burger Bar,4.1,Very Good,245,250,3,"Burger, American",2,None,Observatory,Southern Suburbs,Cape Town,-33.939,18.4693333333,0,1,0,0,0,0,0,0,0,0,1,0,0,0,0,0,0,0,0,0,0,0,0,0,0,0,0,0,0,0,0,0,0,0,0,0,0,0,0,0,0,0,0,0,0,0,0,0,0,0,0,0,0,0,0,0,0,0,0,0,0,0,0,0,0,0,0,0,0,0,0,0
Greenhouse,4.1,Very Good,151,230,3,Deli,1,Babylonstoren Wine Estate,Franschhoek,Winelands,Cape Town,-33.827586,18.924946,0,0,0,0,0,0,0,0,0,0,0,0,0,0,0,0,0,0,0,0,1,0,0,0,0,0,0,0,0,0,0,0,0,0,0,0,0,0,0,0,0,0,0,0,0,0,0,0,0,0,0,0,0,0,0,0,0,0,0,0,0,0,0,0,0,0,0,0,0,0,0,0
tashas,4.1,Very Good,430,320,4,"Cafe, Mediterranean",2,None,V & A Waterfront,Atlantic Seaboard,Cape Town,-33.902336,18.421341,0,0,0,0,0,0,0,0,0,0,0,1,0,0,0,0,0,0,0,0,0,0,0,0,0,0,0,0,0,0,0,0,0,0,0,0,0,0,0,0,0,0,0,0,0,0,0,1,0,0,0,0,0,0,0,0,0,0,0,0,0,0,0,0,0,0,0,0,0,0,0,0
Sushi Box,4.1,Very Good,239,200,3,"Sushi, Asian",2,None,Newlands,Southern Suburbs,Cape Town,-33.976334,18.459069,0,0,1,0,0,0,0,0,0,0,0,0,0,0,0,0,0,0,0,0,0,0,0,0,0,0,0,0,0,0,0,0,0,0,0,0,0,0,0,0,0,0,0,0,0,0,0,0,0,0,0,0,0,0,0,0,0,0,0,0,0,0,0,0,1,0,0,0,0,0,0,0
tashas,4.1,Very Good,215,320,4,"Mediterranean, Cafe",2,Canal Walk Mall,Century City,Northern Suburbs,Cape Town,-33.894,18.51,0,0,0,0,0,0,0,0,0,0,0,1,0,0,0,0,0,0,0,0,0,0,0,0,0,0,0,0,0,0,0,0,0,0,0,0,0,0,0,0,0,0,0,0,0,0,0,1,0,0,0,0,0,0,0,0,0,0,0,0,0,0,0,0,0,0,0,0,0,0,0,0
Bacon on Bree,4.1,Very Good,238,260,3,"Cafe, Beverages, Burger, Deli",4,None,CBD,City Bowl,Cape Town,-33.925603475500004,18.4133477882,0,0,0,0,0,0,0,1,0,0,1,1,0,0,0,0,0,0,0,0,1,0,0,0,0,0,0,0,0,0,0,0,0,0,0,0,0,0,0,0,0,0,0,0,0,0,0,0,0,0,0,0,0,0,0,0,0,0,0,0,0,0,0,0,0,0,0,0,0,0,0,0
Jonkershuis Restaurant,4.1,Very Good,191,350,4,"Cape Malay, Cafe",2,Groot Constantia Wine Estate,Constantia,Southern Suburbs,Cape Town,-34.030623,18.419225,0,0,0,0,0,0,0,0,0,0,0,1,0,1,0,0,0,0,0,0,0,0,0,0,0,0,0,0,0,0,0,0,0,0,0,0,0,0,0,0,0,0,0,0,0,0,0,0,0,0,0,0,0,0,0,0,0,0,0,0,0,0,0,0,0,0,0,0,0,0,0,0
Restaurant @ Sweetwell,4.1,Very Good,77,400,4,"Cafe, Contemporary, South African",3,None,Stellenbosch,Winelands,Cape Town,-34.020018,18.820143,0,0,0,0,0,0,0,0,0,0,0,1,0,0,0,0,0,1,0,0,0,0,0,0,0,0,0,0,0,0,0,0,0,0,0,0,0,0,0,0,0,0,0,0,0,0,0,0,0,0,0,0,0,0,0,0,0,0,0,0,1,0,0,0,0,0,0,0,0,0,0,0
Stacked Diner,4.1,Very Good,137,200,3,"Contemporary, Burger",2,None,Gardens,City Bowl,Cape Town,-33.93076,18.409491,0,0,0,0,0,0,0,0,0,0,1,0,0,0,0,0,0,1,0,0,0,0,0,0,0,0,0,0,0,0,0,0,0,0,0,0,0,0,0,0,0,0,0,0,0,0,0,0,0,0,0,0,0,0,0,0,0,0,0,0,0,0,0,0,0,0,0,0,0,0,0,0
The Fat Cactus,4.1,Very Good,410,300,4,"Mexican, Finger Food, Tex-Mex",3,None,Gardens,City Bowl,Cape Town,-33.9288333333,18.410833333299998,0,0,0,0,0,0,0,0,0,0,0,0,0,0,0,0,0,0,0,0,0,0,0,0,0,0,0,1,0,0,0,0,0,0,0,0,0,0,0,0,0,0,0,0,0,0,0,0,1,0,0,0,0,0,0,0,0,0,0,0,0,0,0,0,0,0,0,1,0,0,0,0
Erawan Thai Restaurant and Bar,4.1,Very Good,82,300,4,"Thai, Asian",2,None,Wynberg,Southern Suburbs,Cape Town,-34.007068,18.463187,0,0,1,0,0,0,0,0,0,0,0,0,0,0,0,0,0,0,0,0,0,0,0,0,0,0,0,0,0,0,0,0,0,0,0,0,0,0,0,0,0,0,0,0,0,0,0,0,0,0,0,0,0,0,0,0,0,0,0,0,0,0,0,0,0,0,0,0,1,0,0,0
Il Leone,4.1,Very Good,238,350,4,Italian,1,None,Green Point,Atlantic Seaboard,Cape Town,-33.9144636307,18.418972380499998,0,0,0,0,0,0,0,0,0,0,0,0,0,0,0,0,0,0,0,0,0,0,0,0,0,0,0,0,0,0,0,0,0,0,0,0,0,0,0,0,1,0,0,0,0,0,0,0,0,0,0,0,0,0,0,0,0,0,0,0,0,0,0,0,0,0,0,0,0,0,0,0
Nuri Sushi Factory,4.1,Very Good,447,160,2,"Japanese, Sushi",2,None,CBD,City Bowl,Cape Town,-33.9241943823,18.4220904484,0,0,0,0,0,0,0,0,0,0,0,0,0,0,0,0,0,0,0,0,0,0,0,0,0,0,0,0,0,0,0,0,0,0,0,0,0,0,0,0,0,1,0,0,0,0,0,0,0,0,0,0,0,0,0,0,0,0,0,0,0,0,0,0,1,0,0,0,0,0,0,0
Boschendal,4.1,Very Good,31,150,2,Drinks Only,1,None,Franschhoek,Winelands,Cape Town,-33.878085,18.9737,0,0,0,0,0,0,0,0,0,0,0,0,0,0,0,0,0,0,0,0,0,0,1,0,0,0,0,0,0,0,0,0,0,0,0,0,0,0,0,0,0,0,0,0,0,0,0,0,0,0,0,0,0,0,0,0,0,0,0,0,0,0,0,0,0,0,0,0,0,0,0,0
Bascule Bar - Hotel Cape Grace,4.1,Very Good,63,350,4,Finger Food,1,Hotel Cape Grace,V & A Waterfront,Atlantic Seaboard,Cape Town,-33.91039,18.421454,0,0,0,0,0,0,0,0,0,0,0,0,0,0,0,0,0,0,0,0,0,0,0,0,0,0,0,1,0,0,0,0,0,0,0,0,0,0,0,0,0,0,0,0,0,0,0,0,0,0,0,0,0,0,0,0,0,0,0,0,0,0,0,0,0,0,0,0,0,0,0,0
Vista Bar & Lounge - One&Only,4.1,Very Good,58,510,4,European,1,One and Only Hotel,V & A Waterfront,Atlantic Seaboard,Cape Town,-33.907256,18.4176,0,0,0,0,0,0,0,0,0,0,0,0,0,0,0,0,0,0,0,0,0,0,0,0,0,1,0,0,0,0,0,0,0,0,0,0,0,0,0,0,0,0,0,0,0,0,0,0,0,0,0,0,0,0,0,0,0,0,0,0,0,0,0,0,0,0,0,0,0,0,0,0
The Butcher Man,4.1,Very Good,51,250,3,"Burger, Grill",2,None,Green Point,Atlantic Seaboard,Cape Town,-33.9078015636,18.409436121600002,0,0,0,0,0,0,0,0,0,0,1,0,0,0,0,0,0,0,0,0,0,0,0,0,0,0,0,0,0,0,0,0,0,0,1,0,0,0,0,0,0,0,0,0,0,0,0,0,0,0,0,0,0,0,0,0,0,0,0,0,0,0,0,0,0,0,0,0,0,0,0,0
The Lounge - The Table Bay Hotel,4.1,Very Good,44,300,4,European,1,The Table Bay Hotel,V & A Waterfront,Atlantic Seaboard,Cape Town,-33.902889,18.422366,0,0,0,0,0,0,0,0,0,0,0,0,0,0,0,0,0,0,0,0,0,0,0,0,0,1,0,0,0,0,0,0,0,0,0,0,0,0,0,0,0,0,0,0,0,0,0,0,0,0,0,0,0,0,0,0,0,0,0,0,0,0,0,0,0,0,0,0,0,0,0,0
Three Wise Monkeys,4.1,Very Good,92,300,4,"Japanese, Asian",2,None,Sea Point,Atlantic Seaboard,Cape Town,-33.921681,18.382771,0,0,1,0,0,0,0,0,0,0,0,0,0,0,0,0,0,0,0,0,0,0,0,0,0,0,0,0,0,0,0,0,0,0,0,0,0,0,0,0,0,1,0,0,0,0,0,0,0,0,0,0,0,0,0,0,0,0,0,0,0,0,0,0,0,0,0,0,0,0,0,0
Cavalli,4.1,Very Good,62,500,4,Contemporary,1,None,Somerset West,Helderberg,Cape Town,-34.0139169184,18.820562101900002,0,0,0,0,0,0,0,0,0,0,0,0,0,0,0,0,0,1,0,0,0,0,0,0,0,0,0,0,0,0,0,0,0,0,0,0,0,0,0,0,0,0,0,0,0,0,0,0,0,0,0,0,0,0,0,0,0,0,0,0,0,0,0,0,0,0,0,0,0,0,0,0
Smak,4.1,Very Good,69,250,3,"Cafe, Burger, Juices, Desserts, Italian, Deli",6,None,CBD,City Bowl,Cape Town,-33.9182762146,18.421394415199998,0,0,0,0,0,0,0,0,0,0,1,1,0,0,0,0,0,0,0,0,1,1,0,0,0,0,0,0,0,0,0,0,0,0,0,0,0,0,0,0,1,0,1,0,0,0,0,0,0,0,0,0,0,0,0,0,0,0,0,0,0,0,0,0,0,0,0,0,0,0,0,0
Addis In Cape,4.1,Very Good,140,430,4,Ethiopian,1,None,CBD,City Bowl,Cape Town,-33.9228333333,18.4185,0,0,0,0,0,0,0,0,0,0,0,0,0,0,0,0,0,0,0,0,0,0,0,0,1,0,0,0,0,0,0,0,0,0,0,0,0,0,0,0,0,0,0,0,0,0,0,0,0,0,0,0,0,0,0,0,0,0,0,0,0,0,0,0,0,0,0,0,0,0,0,0
J.C. Le Roux,4.1,Very Good,83,300,4,American,1,None,Stellenbosch,Winelands,Cape Town,-33.904672,18.810096,0,1,0,0,0,0,0,0,0,0,0,0,0,0,0,0,0,0,0,0,0,0,0,0,0,0,0,0,0,0,0,0,0,0,0,0,0,0,0,0,0,0,0,0,0,0,0,0,0,0,0,0,0,0,0,0,0,0,0,0,0,0,0,0,0,0,0,0,0,0,0,0
Maria's,4.1,Very Good,190,250,3,"Cafe, Greek",2,Dunkley Square,Gardens,City Bowl,Cape Town,-33.9315,18.416833333299998,0,0,0,0,0,0,0,0,0,0,0,1,0,0,0,0,0,0,0,0,0,0,0,0,0,0,0,0,0,0,0,0,0,1,0,0,0,0,0,0,0,0,0,0,0,0,0,0,0,0,0,0,0,0,0,0,0,0,0,0,0,0,0,0,0,0,0,0,0,0,0,0
Tessa's Bakery,4.1,Very Good,41,120,2,"Bakery, Desserts",2,None,Montague Gardens,West Coast,Cape Town,-33.869425348200004,18.5045029968,0,0,0,0,1,0,0,0,0,0,0,0,0,0,0,0,0,0,0,0,0,1,0,0,0,0,0,0,0,0,0,0,0,0,0,0,0,0,0,0,0,0,0,0,0,0,0,0,0,0,0,0,0,0,0,0,0,0,0,0,0,0,0,0,0,0,0,0,0,0,0,0
I Love My Laundry,4.1,Very Good,45,150,2,"Cafe, Korean",2,None,CBD,City Bowl,Cape Town,-33.9292344608,18.4216850996,0,0,0,0,0,0,0,0,0,0,0,1,0,0,0,0,0,0,0,0,0,0,0,0,0,0,0,0,0,0,0,0,0,0,0,0,0,0,0,0,0,0,0,1,0,0,0,0,0,0,0,0,0,0,0,0,0,0,0,0,0,0,0,0,0,0,0,0,0,0,0,0
Rootbar,4.1,Very Good,92,180,2,"Cafe, Healthy Food, Juices",3,None,Newlands,Southern Suburbs,Cape Town,-33.971027,18.463816,0,0,0,0,0,0,0,0,0,0,0,1,0,0,0,0,0,0,0,0,0,0,0,0,0,0,0,0,0,0,0,0,0,0,0,1,0,0,0,0,0,0,1,0,0,0,0,0,0,0,0,0,0,0,0,0,0,0,0,0,0,0,0,0,0,0,0,0,0,0,0,0
La Boheme,4.1,Very Good,290,300,4,"South African, European",2,None,Sea Point,Atlantic Seaboard,Cape Town,-33.914,18.3913333333,0,0,0,0,0,0,0,0,0,0,0,0,0,0,0,0,0,0,0,0,0,0,0,0,0,1,0,0,0,0,0,0,0,0,0,0,0,0,0,0,0,0,0,0,0,0,0,0,0,0,0,0,0,0,0,0,0,0,0,0,1,0,0,0,0,0,0,0,0,0,0,0
Harbour House Restaurant,4.1,Very Good,159,500,4,"Seafood, Sushi",2,Kalk Bay,Bay Area,South Peninsula,Cape Town,-34.129281,18.449268,0,0,0,0,0,0,0,0,0,0,0,0,0,0,0,0,0,0,0,0,0,0,0,0,0,0,0,0,0,0,0,0,0,0,0,0,0,0,0,0,0,0,0,0,0,0,0,0,0,0,0,0,0,0,0,0,0,0,0,1,0,0,0,0,1,0,0,0,0,0,0,0
Hoghouse Brewing Company,4.1,Very Good,75,270,3,"American, Grill",2,None,Pinelands,Southern Suburbs,Cape Town,-33.9296484033,18.5010221601,0,1,0,0,0,0,0,0,0,0,0,0,0,0,0,0,0,0,0,0,0,0,0,0,0,0,0,0,0,0,0,0,0,0,1,0,0,0,0,0,0,0,0,0,0,0,0,0,0,0,0,0,0,0,0,0,0,0,0,0,0,0,0,0,0,0,0,0,0,0,0,0
Savoy Cabbage,4.1,Very Good,74,470,4,"African, Mediterranean, Beverages, Contemporary",4,None,CBD,City Bowl,Cape Town,-33.9201394579,18.4184433147,1,0,0,0,0,0,0,1,0,0,0,0,0,0,0,0,0,1,0,0,0,0,0,0,0,0,0,0,0,0,0,0,0,0,0,0,0,0,0,0,0,0,0,0,0,0,0,1,0,0,0,0,0,0,0,0,0,0,0,0,0,0,0,0,0,0,0,0,0,0,0,0
Hungry Herbivore,4.1,Very Good,64,180,2,Healthy Food,1,None,CBD,City Bowl,Cape Town,-33.925854,18.413285,0,0,0,0,0,0,0,0,0,0,0,0,0,0,0,0,0,0,0,0,0,0,0,0,0,0,0,0,0,0,0,0,0,0,0,1,0,0,0,0,0,0,0,0,0,0,0,0,0,0,0,0,0,0,0,0,0,0,0,0,0,0,0,0,0,0,0,0,0,0,0,0
Harbour House Restaurant,4.1,Very Good,196,500,4,"Seafood, Sushi",2,None,V & A Waterfront,Atlantic Seaboard,Cape Town,-33.905059,18.420513,0,0,0,0,0,0,0,0,0,0,0,0,0,0,0,0,0,0,0,0,0,0,0,0,0,0,0,0,0,0,0,0,0,0,0,0,0,0,0,0,0,0,0,0,0,0,0,0,0,0,0,0,0,0,0,0,0,0,0,1,0,0,0,0,1,0,0,0,0,0,0,0
Azure - 12 Apostles Hotel & Spa,4.1,Very Good,117,500,4,"South African, Seafood",2,12 Apostles Hotel & Spa,Camps Bay,Atlantic Seaboard,Cape Town,-33.983608,18.358495,0,0,0,0,0,0,0,0,0,0,0,0,0,0,0,0,0,0,0,0,0,0,0,0,0,0,0,0,0,0,0,0,0,0,0,0,0,0,0,0,0,0,0,0,0,0,0,0,0,0,0,0,0,0,0,0,0,0,0,1,1,0,0,0,0,0,0,0,0,0,0,0
Avontuur,4.1,Very Good,57,450,4,"Mediterranean, South African, Contemporary, International",4,None,Somerset West,Helderberg,Cape Town,-34.02779,18.821559,0,0,0,0,0,0,0,0,0,0,0,0,0,0,0,0,0,1,0,0,0,0,0,0,0,0,0,0,0,0,0,0,0,0,0,0,0,0,1,0,0,0,0,0,0,0,0,1,0,0,0,0,0,0,0,0,0,0,0,0,1,0,0,0,0,0,0,0,0,0,0,0
ON19 Restaurant - The Westin Cape Town,4.1,Very Good,45,460,4,"African, Continental",2,The Westin,Foreshore,City Bowl,Cape Town,-33.9157304302,18.4260812402,1,0,0,0,0,0,0,0,0,0,0,0,0,0,0,0,0,0,1,0,0,0,0,0,0,0,0,0,0,0,0,0,0,0,0,0,0,0,0,0,0,0,0,0,0,0,0,0,0,0,0,0,0,0,0,0,0,0,0,0,0,0,0,0,0,0,0,0,0,0,0,0
Towers Restaurant,4.1,Very Good,55,490,4,"Contemporary, International",2,None,Century City,Northern Suburbs,Cape Town,-33.891133,18.51196,0,0,0,0,0,0,0,0,0,0,0,0,0,0,0,0,0,1,0,0,0,0,0,0,0,0,0,0,0,0,0,0,0,0,0,0,0,0,1,0,0,0,0,0,0,0,0,0,0,0,0,0,0,0,0,0,0,0,0,0,0,0,0,0,0,0,0,0,0,0,0,0
Haute Cabrière Cellar Restaurant,4.1,Very Good,102,475,4,French,1,None,Franschhoek,Winelands,Cape Town,-33.9144972222,19.1358027778,0,0,0,0,0,0,0,0,0,0,0,0,0,0,0,0,0,0,0,0,0,0,0,0,0,0,0,0,0,1,0,0,0,0,0,0,0,0,0,0,0,0,0,0,0,0,0,0,0,0,0,0,0,0,0,0,0,0,0,0,0,0,0,0,0,0,0,0,0,0,0,0
Delaire Graff  Restaurant,4.1,Very Good,119,650,4,"Contemporary, South African",2,Delaire Graff  Estate,Stellenbosch,Winelands,Cape Town,-33.92164,18.923343,0,0,0,0,0,0,0,0,0,0,0,0,0,0,0,0,0,1,0,0,0,0,0,0,0,0,0,0,0,0,0,0,0,0,0,0,0,0,0,0,0,0,0,0,0,0,0,0,0,0,0,0,0,0,0,0,0,0,0,0,1,0,0,0,0,0,0,0,0,0,0,0
Fairview Tasting Room,4.1,Very Good,44,100,2,Drinks Only,1,None,Paarl,Winelands,Cape Town,-33.771753,18.924182,0,0,0,0,0,0,0,0,0,0,0,0,0,0,0,0,0,0,0,0,0,0,1,0,0,0,0,0,0,0,0,0,0,0,0,0,0,0,0,0,0,0,0,0,0,0,0,0,0,0,0,0,0,0,0,0,0,0,0,0,0,0,0,0,0,0,0,0,0,0,0,0
The Creamery,4.1,Very Good,44,75,1,"Desserts, Ice Cream",2,None,Claremont,Southern Suburbs,Cape Town,-33.981278,18.467422,0,0,0,0,0,0,0,0,0,0,0,0,0,0,0,0,0,0,0,0,0,1,0,0,0,0,0,0,0,0,0,0,0,0,0,0,1,0,0,0,0,0,0,0,0,0,0,0,0,0,0,0,0,0,0,0,0,0,0,0,0,0,0,0,0,0,0,0,0,0,0,0
Terroir,4.1,Very Good,89,500,4,"French, Contemporary",2,None,Stellenbosch,Winelands,Cape Town,-33.9706222222,18.836138888900003,0,0,0,0,0,0,0,0,0,0,0,0,0,0,0,0,0,1,0,0,0,0,0,0,0,0,0,0,0,1,0,0,0,0,0,0,0,0,0,0,0,0,0,0,0,0,0,0,0,0,0,0,0,0,0,0,0,0,0,0,0,0,0,0,0,0,0,0,0,0,0,0
Myog,4.1,Very Good,86,100,2,Desserts,1,None,Gardens,City Bowl,Cape Town,-33.9315,18.409333333299998,0,0,0,0,0,0,0,0,0,0,0,0,0,0,0,0,0,0,0,0,0,1,0,0,0,0,0,0,0,0,0,0,0,0,0,0,0,0,0,0,0,0,0,0,0,0,0,0,0,0,0,0,0,0,0,0,0,0,0,0,0,0,0,0,0,0,0,0,0,0,0,0
The Village Idiot,4.0,Very Good,236,280,3,"South African, Grill",2,None,CBD,City Bowl,Cape Town,-33.9198979647,18.4214131907,0,0,0,0,0,0,0,0,0,0,0,0,0,0,0,0,0,0,0,0,0,0,0,0,0,0,0,0,0,0,0,0,0,0,1,0,0,0,0,0,0,0,0,0,0,0,0,0,0,0,0,0,0,0,0,0,0,0,0,0,1,0,0,0,0,0,0,0,0,0,0,0
Yindee's,4.0,Very Good,166,250,3,Thai,1,None,Gardens,City Bowl,Cape Town,-33.9326666667,18.407,0,0,0,0,0,0,0,0,0,0,0,0,0,0,0,0,0,0,0,0,0,0,0,0,0,0,0,0,0,0,0,0,0,0,0,0,0,0,0,0,0,0,0,0,0,0,0,0,0,0,0,0,0,0,0,0,0,0,0,0,0,0,0,0,0,0,0,0,1,0,0,0
Pancho's,4.0,Very Good,330,400,4,Mexican,1,None,Observatory,Southern Suburbs,Cape Town,-33.9386666667,18.4688333333,0,0,0,0,0,0,0,0,0,0,0,0,0,0,0,0,0,0,0,0,0,0,0,0,0,0,0,0,0,0,0,0,0,0,0,0,0,0,0,0,0,0,0,0,0,0,0,0,1,0,0,0,0,0,0,0,0,0,0,0,0,0,0,0,0,0,0,0,0,0,0,0
Ristorante Posticino,4.0,Very Good,258,250,3,"Italian, Pizza",2,None,Sea Point,Atlantic Seaboard,Cape Town,-33.9135,18.3916666667,0,0,0,0,0,0,0,0,0,0,0,0,0,0,0,0,0,0,0,0,0,0,0,0,0,0,0,0,0,0,0,0,0,0,0,0,0,0,0,0,1,0,0,0,0,0,0,0,0,0,0,0,0,0,1,0,0,0,0,0,0,0,0,0,0,0,0,0,0,0,0,0
Orphanage,4.0,Very Good,128,250,3,Finger Food,1,None,CBD,City Bowl,Cape Town,-33.925804335500004,18.4131975845,0,0,0,0,0,0,0,0,0,0,0,0,0,0,0,0,0,0,0,0,0,0,0,0,0,0,0,1,0,0,0,0,0,0,0,0,0,0,0,0,0,0,0,0,0,0,0,0,0,0,0,0,0,0,0,0,0,0,0,0,0,0,0,0,0,0,0,0,0,0,0,0
Clarke's Bar & Dining Room,4.0,Very Good,290,280,3,European,1,None,CBD,City Bowl,Cape Town,-33.9222858793,18.4171337262,0,0,0,0,0,0,0,0,0,0,0,0,0,0,0,0,0,0,0,0,0,0,0,0,0,1,0,0,0,0,0,0,0,0,0,0,0,0,0,0,0,0,0,0,0,0,0,0,0,0,0,0,0,0,0,0,0,0,0,0,0,0,0,0,0,0,0,0,0,0,0,0
The Hussar Grill,4.0,Very Good,128,400,4,"Steak, Grill, European",3,None,Green Point,Atlantic Seaboard,Cape Town,-33.904128481,18.3987475187,0,0,0,0,0,0,0,0,0,0,0,0,0,0,0,0,0,0,0,0,0,0,0,0,0,1,0,0,0,0,0,0,0,0,1,0,0,0,0,0,0,0,0,0,0,0,0,0,0,0,0,0,0,0,0,0,0,0,0,0,0,0,1,0,0,0,0,0,0,0,0,0
Galbi,4.0,Very Good,144,300,4,"Korean, African",2,None,CBD,City Bowl,Cape Town,-33.925368396399996,18.4153882787,1,0,0,0,0,0,0,0,0,0,0,0,0,0,0,0,0,0,0,0,0,0,0,0,0,0,0,0,0,0,0,0,0,0,0,0,0,0,0,0,0,0,0,1,0,0,0,0,0,0,0,0,0,0,0,0,0,0,0,0,0,0,0,0,0,0,0,0,0,0,0,0
Saigon,4.0,Very Good,198,400,4,"Vietnamese, Japanese, Sushi",3,None,Gardens,City Bowl,Cape Town,-33.9326666667,18.4083333333,0,0,0,0,0,0,0,0,0,0,0,0,0,0,0,0,0,0,0,0,0,0,0,0,0,0,0,0,0,0,0,0,0,0,0,0,0,0,0,0,0,1,0,0,0,0,0,0,0,0,0,0,0,0,0,0,0,0,0,0,0,0,0,0,1,0,0,0,0,0,0,1
Die Damhuis,4.0,Very Good,146,375,4,"Seafood, Grill",2,None,Melkbosstrand,West Coast,Cape Town,-33.728609,18.439811,0,0,0,0,0,0,0,0,0,0,0,0,0,0,0,0,0,0,0,0,0,0,0,0,0,0,0,0,0,0,0,0,0,0,1,0,0,0,0,0,0,0,0,0,0,0,0,0,0,0,0,0,0,0,0,0,0,0,0,1,0,0,0,0,0,0,0,0,0,0,0,0
Craft Burger Bar,4.0,Very Good,200,280,3,"American, Burger",2,None,Sea Point,Atlantic Seaboard,Cape Town,-33.921222,18.382369,0,1,0,0,0,0,0,0,0,0,1,0,0,0,0,0,0,0,0,0,0,0,0,0,0,0,0,0,0,0,0,0,0,0,0,0,0,0,0,0,0,0,0,0,0,0,0,0,0,0,0,0,0,0,0,0,0,0,0,0,0,0,0,0,0,0,0,0,0,0,0,0
Manna Epicure,4.0,Very Good,179,300,4,"Mediterranean, Continental",2,None,Gardens,City Bowl,Cape Town,-33.93461,18.407123,0,0,0,0,0,0,0,0,0,0,0,0,0,0,0,0,0,0,1,0,0,0,0,0,0,0,0,0,0,0,0,0,0,0,0,0,0,0,0,0,0,0,0,0,0,0,0,1,0,0,0,0,0,0,0,0,0,0,0,0,0,0,0,0,0,0,0,0,0,0,0,0
IYO Burgers (Inside & You're Out),4.0,Very Good,349,300,4,Burger,1,None,CBD,City Bowl,Cape Town,-33.921272074099996,18.4182035923,0,0,0,0,0,0,0,0,0,0,1,0,0,0,0,0,0,0,0,0,0,0,0,0,0,0,0,0,0,0,0,0,0,0,0,0,0,0,0,0,0,0,0,0,0,0,0,0,0,0,0,0,0,0,0,0,0,0,0,0,0,0,0,0,0,0,0,0,0,0,0,0
Buitenverwachting,4.0,Very Good,60,550,4,"European, Cafe",2,None,Constantia,Southern Suburbs,Cape Town,-34.0418861111,18.4162666667,0,0,0,0,0,0,0,0,0,0,0,1,0,0,0,0,0,0,0,0,0,0,0,0,0,1,0,0,0,0,0,0,0,0,0,0,0,0,0,0,0,0,0,0,0,0,0,0,0,0,0,0,0,0,0,0,0,0,0,0,0,0,0,0,0,0,0,0,0,0,0,0
Pizza Vesuvio,4.0,Very Good,120,370,4,"Italian, Pizza",2,None,Bellville,Northern Suburbs,Cape Town,-33.8764475502,18.6299660057,0,0,0,0,0,0,0,0,0,0,0,0,0,0,0,0,0,0,0,0,0,0,0,0,0,0,0,0,0,0,0,0,0,0,0,0,0,0,0,0,1,0,0,0,0,0,0,0,0,0,0,0,0,0,1,0,0,0,0,0,0,0,0,0,0,0,0,0,0,0,0,0
Liquorice & Lime,4.0,Very Good,110,250,3,Cafe,1,None,Gardens,City Bowl,Cape Town,-33.936722,18.404717,0,0,0,0,0,0,0,0,0,0,0,1,0,0,0,0,0,0,0,0,0,0,0,0,0,0,0,0,0,0,0,0,0,0,0,0,0,0,0,0,0,0,0,0,0,0,0,0,0,0,0,0,0,0,0,0,0,0,0,0,0,0,0,0,0,0,0,0,0,0,0,0
Signal - Hotel Cape Grace,4.0,Very Good,44,550,4,"European, Continental",2,Hotel Cape Grace,V & A Waterfront,Atlantic Seaboard,Cape Town,-33.91039,18.421454,0,0,0,0,0,0,0,0,0,0,0,0,0,0,0,0,0,0,1,0,0,0,0,0,0,1,0,0,0,0,0,0,0,0,0,0,0,0,0,0,0,0,0,0,0,0,0,0,0,0,0,0,0,0,0,0,0,0,0,0,0,0,0,0,0,0,0,0,0,0,0,0
Camphors at Vergelegen,4.0,Very Good,20,600,4,African,1,Vergelegen,Somerset West,Helderberg,Cape Town,-34.0777583333,18.8913111111,1,0,0,0,0,0,0,0,0,0,0,0,0,0,0,0,0,0,0,0,0,0,0,0,0,0,0,0,0,0,0,0,0,0,0,0,0,0,0,0,0,0,0,0,0,0,0,0,0,0,0,0,0,0,0,0,0,0,0,0,0,0,0,0,0,0,0,0,0,0,0,0
Rust en Vrede,4.0,Very Good,50,1200,4,African,1,None,Stellenbosch,Winelands,Cape Town,-33.9987361111,18.856811111099997,1,0,0,0,0,0,0,0,0,0,0,0,0,0,0,0,0,0,0,0,0,0,0,0,0,0,0,0,0,0,0,0,0,0,0,0,0,0,0,0,0,0,0,0,0,0,0,0,0,0,0,0,0,0,0,0,0,0,0,0,0,0,0,0,0,0,0,0,0,0,0,0
Pierneef a La Motte,4.0,Very Good,60,500,4,"South African, Contemporary",2,None,Franschhoek,Winelands,Cape Town,-33.880665,19.074081,0,0,0,0,0,0,0,0,0,0,0,0,0,0,0,0,0,1,0,0,0,0,0,0,0,0,0,0,0,0,0,0,0,0,0,0,0,0,0,0,0,0,0,0,0,0,0,0,0,0,0,0,0,0,0,0,0,0,0,0,1,0,0,0,0,0,0,0,0,0,0,0
1890 House Sushi,4.0,Very Good,139,200,3,"Chinese, Sushi, Thai",3,None,Observatory,Southern Suburbs,Cape Town,-33.939166666700004,18.4693333333,0,0,0,0,0,0,0,0,0,0,0,0,0,0,0,1,0,0,0,0,0,0,0,0,0,0,0,0,0,0,0,0,0,0,0,0,0,0,0,0,0,0,0,0,0,0,0,0,0,0,0,0,0,0,0,0,0,0,0,0,0,0,0,0,1,0,0,0,1,0,0,0
Aubergine,4.0,Very Good,60,890,4,European,1,None,Gardens,City Bowl,Cape Town,-33.932127,18.416116,0,0,0,0,0,0,0,0,0,0,0,0,0,0,0,0,0,0,0,0,0,0,0,0,0,1,0,0,0,0,0,0,0,0,0,0,0,0,0,0,0,0,0,0,0,0,0,0,0,0,0,0,0,0,0,0,0,0,0,0,0,0,0,0,0,0,0,0,0,0,0,0
The Square - Vineyard Hotel,4.0,Very Good,70,420,4,"European, Continental, Japanese",3,Vineyard Hotel & Spa,Newlands,Southern Suburbs,Cape Town,-33.978285,18.459997,0,0,0,0,0,0,0,0,0,0,0,0,0,0,0,0,0,0,1,0,0,0,0,0,0,1,0,0,0,0,0,0,0,0,0,0,0,0,0,0,0,1,0,0,0,0,0,0,0,0,0,0,0,0,0,0,0,0,0,0,0,0,0,0,0,0,0,0,0,0,0,0
Durbanville Hills Restaurant,4.0,Very Good,143,450,4,"Grill, South African",2,None,Durbanville,Northern Suburbs,Cape Town,-33.824941,18.566045,0,0,0,0,0,0,0,0,0,0,0,0,0,0,0,0,0,0,0,0,0,0,0,0,0,0,0,0,0,0,0,0,0,0,1,0,0,0,0,0,0,0,0,0,0,0,0,0,0,0,0,0,0,0,0,0,0,0,0,0,1,0,0,0,0,0,0,0,0,0,0,0
Sevruga,4.0,Very Good,522,600,4,"Seafood, Grill, Japanese, Asian, Sushi",5,None,V & A Waterfront,Atlantic Seaboard,Cape Town,-33.9046786187,18.420543149100002,0,0,1,0,0,0,0,0,0,0,0,0,0,0,0,0,0,0,0,0,0,0,0,0,0,0,0,0,0,0,0,0,0,0,1,0,0,0,0,0,0,1,0,0,0,0,0,0,0,0,0,0,0,0,0,0,0,0,0,1,0,0,0,0,1,0,0,0,0,0,0,0
Waterford Wine Estate,4.0,Very Good,23,100,2,Drinks Only,1,None,Stellenbosch,Winelands,Cape Town,-33.995305,18.87069,0,0,0,0,0,0,0,0,0,0,0,0,0,0,0,0,0,0,0,0,0,0,1,0,0,0,0,0,0,0,0,0,0,0,0,0,0,0,0,0,0,0,0,0,0,0,0,0,0,0,0,0,0,0,0,0,0,0,0,0,0,0,0,0,0,0,0,0,0,0,0,0
Steenberg Tasting Room,4.0,Very Good,27,80,1,Drinks Only,1,None,Tokai,Southern Suburbs,Cape Town,-34.075363,18.422753,0,0,0,0,0,0,0,0,0,0,0,0,0,0,0,0,0,0,0,0,0,0,1,0,0,0,0,0,0,0,0,0,0,0,0,0,0,0,0,0,0,0,0,0,0,0,0,0,0,0,0,0,0,0,0,0,0,0,0,0,0,0,0,0,0,0,0,0,0,0,0,0
Salushi,4.0,Very Good,284,250,3,"Japanese, Sushi, Asian",3,None,Claremont,Southern Suburbs,Cape Town,-33.978602,18.462423,0,0,1,0,0,0,0,0,0,0,0,0,0,0,0,0,0,0,0,0,0,0,0,0,0,0,0,0,0,0,0,0,0,0,0,0,0,0,0,0,0,1,0,0,0,0,0,0,0,0,0,0,0,0,0,0,0,0,0,0,0,0,0,0,1,0,0,0,0,0,0,0
Motherland Coffee Company,4.0,Very Good,89,150,2,Cafe,1,None,CBD,City Bowl,Cape Town,-33.9240255121,18.4198551625,0,0,0,0,0,0,0,0,0,0,0,1,0,0,0,0,0,0,0,0,0,0,0,0,0,0,0,0,0,0,0,0,0,0,0,0,0,0,0,0,0,0,0,0,0,0,0,0,0,0,0,0,0,0,0,0,0,0,0,0,0,0,0,0,0,0,0,0,0,0,0,0
Dalliance,4.0,Very Good,68,350,4,"Seafood, Tapas",2,Victoria Wharf,V & A Waterfront,Atlantic Seaboard,Cape Town,-33.902867,18.42042,0,0,0,0,0,0,0,0,0,0,0,0,0,0,0,0,0,0,0,0,0,0,0,0,0,0,0,0,0,0,0,0,0,0,0,0,0,0,0,0,0,0,0,0,0,0,0,0,0,0,0,0,0,0,0,0,0,0,0,1,0,0,0,0,0,1,0,0,0,0,0,0
Haas Collective,4.0,Very Good,167,190,2,Cafe,1,None,CBD,City Bowl,Cape Town,-33.9272498455,18.4240816534,0,0,0,0,0,0,0,0,0,0,0,1,0,0,0,0,0,0,0,0,0,0,0,0,0,0,0,0,0,0,0,0,0,0,0,0,0,0,0,0,0,0,0,0,0,0,0,0,0,0,0,0,0,0,0,0,0,0,0,0,0,0,0,0,0,0,0,0,0,0,0,0
Pajamas & Jam Eatery,4.0,Very Good,103,200,3,Cafe,1,None,Strand,Helderberg,Cape Town,-34.097099,18.845348,0,0,0,0,0,0,0,0,0,0,0,1,0,0,0,0,0,0,0,0,0,0,0,0,0,0,0,0,0,0,0,0,0,0,0,0,0,0,0,0,0,0,0,0,0,0,0,0,0,0,0,0,0,0,0,0,0,0,0,0,0,0,0,0,0,0,0,0,0,0,0,0
Superette,4.0,Very Good,123,200,3,Cafe,1,None,Woodstock,City Bowl,Cape Town,-33.9265003867,18.445898741500002,0,0,0,0,0,0,0,0,0,0,0,1,0,0,0,0,0,0,0,0,0,0,0,0,0,0,0,0,0,0,0,0,0,0,0,0,0,0,0,0,0,0,0,0,0,0,0,0,0,0,0,0,0,0,0,0,0,0,0,0,0,0,0,0,0,0,0,0,0,0,0,0
Seattle Coffee Co,4.0,Very Good,65,120,2,Cafe,1,Cavendish Square,Claremont,Southern Suburbs,Cape Town,-33.979971,18.463085,0,0,0,0,0,0,0,0,0,0,0,1,0,0,0,0,0,0,0,0,0,0,0,0,0,0,0,0,0,0,0,0,0,0,0,0,0,0,0,0,0,0,0,0,0,0,0,0,0,0,0,0,0,0,0,0,0,0,0,0,0,0,0,0,0,0,0,0,0,0,0,0
Hard Pressed Cafe,4.0,Very Good,61,180,2,"Cafe, Bakery, Juices, Beverages, Healthy Food",5,Portside Building,De Waterkant,City Bowl,Cape Town,-33.9174215072,18.421915099,0,0,0,0,1,0,0,1,0,0,0,1,0,0,0,0,0,0,0,0,0,0,0,0,0,0,0,0,0,0,0,0,0,0,0,1,0,0,0,0,0,0,1,0,0,0,0,0,0,0,0,0,0,0,0,0,0,0,0,0,0,0,0,0,0,0,0,0,0,0,0,0
El Burro,4.0,Very Good,52,350,4,Mexican,1,None,Newlands,Southern Suburbs,Cape Town,-33.97094,18.463512,0,0,0,0,0,0,0,0,0,0,0,0,0,0,0,0,0,0,0,0,0,0,0,0,0,0,0,0,0,0,0,0,0,0,0,0,0,0,0,0,0,0,0,0,0,0,0,0,1,0,0,0,0,0,0,0,0,0,0,0,0,0,0,0,0,0,0,0,0,0,0,0
Tokara Delicatessen,4.0,Very Good,75,250,3,"Cafe, Deli",2,Tokara Wine Estate,Stellenbosch,Winelands,Cape Town,-33.9169694444,18.9277111111,0,0,0,0,0,0,0,0,0,0,0,1,0,0,0,0,0,0,0,0,1,0,0,0,0,0,0,0,0,0,0,0,0,0,0,0,0,0,0,0,0,0,0,0,0,0,0,0,0,0,0,0,0,0,0,0,0,0,0,0,0,0,0,0,0,0,0,0,0,0,0,0
Xpresso Café,4.0,Very Good,43,100,2,"Cafe, Deli, Desserts",3,None,Durbanville,Northern Suburbs,Cape Town,-33.830193280100005,18.6491089314,0,0,0,0,0,0,0,0,0,0,0,1,0,0,0,0,0,0,0,0,1,1,0,0,0,0,0,0,0,0,0,0,0,0,0,0,0,0,0,0,0,0,0,0,0,0,0,0,0,0,0,0,0,0,0,0,0,0,0,0,0,0,0,0,0,0,0,0,0,0,0,0
Outrage of Modesty,4.0,Very Good,49,250,3,International,1,None,CBD,City Bowl,Cape Town,-33.9210837231,18.4183276445,0,0,0,0,0,0,0,0,0,0,0,0,0,0,0,0,0,0,0,0,0,0,0,0,0,0,0,0,0,0,0,0,0,0,0,0,0,0,1,0,0,0,0,0,0,0,0,0,0,0,0,0,0,0,0,0,0,0,0,0,0,0,0,0,0,0,0,0,0,0,0,0
Moksh Indian Restaurant,4.0,Very Good,51,300,4,Indian,1,None,Plattekloof,Northern Suburbs,Cape Town,-33.870066,18.568674,0,0,0,0,0,0,0,0,0,0,0,0,0,0,0,0,0,0,0,0,0,0,0,0,0,0,0,0,0,0,0,0,0,0,0,0,0,1,0,0,0,0,0,0,0,0,0,0,0,0,0,0,0,0,0,0,0,0,0,0,0,0,0,0,0,0,0,0,0,0,0,0
Nü,4.0,Very Good,119,200,3,"Healthy Food, Cafe",2,None,Green Point,Atlantic Seaboard,Cape Town,-33.909026167600004,18.4128613025,0,0,0,0,0,0,0,0,0,0,0,1,0,0,0,0,0,0,0,0,0,0,0,0,0,0,0,0,0,0,0,0,0,0,0,1,0,0,0,0,0,0,0,0,0,0,0,0,0,0,0,0,0,0,0,0,0,0,0,0,0,0,0,0,0,0,0,0,0,0,0,0
Max Bagels,4.0,Very Good,66,0,1,"Cafe, Bakery",2,None,CBD,City Bowl,Cape Town,-33.9222691867,18.4169268608,0,0,0,0,1,0,0,0,0,0,0,1,0,0,0,0,0,0,0,0,0,0,0,0,0,0,0,0,0,0,0,0,0,0,0,0,0,0,0,0,0,0,0,0,0,0,0,0,0,0,0,0,0,0,0,0,0,0,0,0,0,0,0,0,0,0,0,0,0,0,0,0
Clay Cafe,4.0,Very Good,43,200,3,"Cafe, Pizza",2,None,Hout Bay,Atlantic Seaboard,Cape Town,-34.0171731387,18.3798825368,0,0,0,0,0,0,0,0,0,0,0,1,0,0,0,0,0,0,0,0,0,0,0,0,0,0,0,0,0,0,0,0,0,0,0,0,0,0,0,0,0,0,0,0,0,0,0,0,0,0,0,0,0,0,1,0,0,0,0,0,0,0,0,0,0,0,0,0,0,0,0,0
Hartenberg,4.0,Very Good,28,300,4,"Cafe, South African",2,None,Stellenbosch,Winelands,Cape Town,-33.898331,18.791541,0,0,0,0,0,0,0,0,0,0,0,1,0,0,0,0,0,0,0,0,0,0,0,0,0,0,0,0,0,0,0,0,0,0,0,0,0,0,0,0,0,0,0,0,0,0,0,0,0,0,0,0,0,0,0,0,0,0,0,0,1,0,0,0,0,0,0,0,0,0,0,0
Orchard on Long,4.0,Very Good,78,200,3,"Cafe, Beverages, Healthy Food",3,None,CBD,City Bowl,Cape Town,-33.9250849097,18.416347838900002,0,0,0,0,0,0,0,1,0,0,0,1,0,0,0,0,0,0,0,0,0,0,0,0,0,0,0,0,0,0,0,0,0,0,0,1,0,0,0,0,0,0,0,0,0,0,0,0,0,0,0,0,0,0,0,0,0,0,0,0,0,0,0,0,0,0,0,0,0,0,0,0
Rosetta Roastery,4.0,Very Good,61,80,1,Cafe,1,None,Woodstock,City Bowl,Cape Town,-33.926602,18.445909,0,0,0,0,0,0,0,0,0,0,0,1,0,0,0,0,0,0,0,0,0,0,0,0,0,0,0,0,0,0,0,0,0,0,0,0,0,0,0,0,0,0,0,0,0,0,0,0,0,0,0,0,0,0,0,0,0,0,0,0,0,0,0,0,0,0,0,0,0,0,0,0
Petiscos Restaurant,4.0,Very Good,98,350,4,Portuguese,1,None,Parklands,West Coast,Cape Town,-33.8180883384,18.4966196492,0,0,0,0,0,0,0,0,0,0,0,0,0,0,0,0,0,0,0,0,0,0,0,0,0,0,0,0,0,0,0,0,0,0,0,0,0,0,0,0,0,0,0,0,0,0,0,0,0,0,0,0,0,0,0,1,0,0,0,0,0,0,0,0,0,0,0,0,0,0,0,0
The Kitchen,4.0,Very Good,62,180,2,"Cafe, Healthy Food, European",3,None,Woodstock,City Bowl,Cape Town,-33.927570603,18.437958397,0,0,0,0,0,0,0,0,0,0,0,1,0,0,0,0,0,0,0,0,0,0,0,0,0,1,0,0,0,0,0,0,0,0,0,1,0,0,0,0,0,0,0,0,0,0,0,0,0,0,0,0,0,0,0,0,0,0,0,0,0,0,0,0,0,0,0,0,0,0,0,0
Cafe Orca,4.0,Very Good,98,300,4,Seafood,1,None,Melkbosstrand,West Coast,Cape Town,-33.724788,18.44307,0,0,0,0,0,0,0,0,0,0,0,0,0,0,0,0,0,0,0,0,0,0,0,0,0,0,0,0,0,0,0,0,0,0,0,0,0,0,0,0,0,0,0,0,0,0,0,0,0,0,0,0,0,0,0,0,0,0,0,1,0,0,0,0,0,0,0,0,0,0,0,0
Origin Coffee Roasting,4.0,Very Good,206,200,3,"Cafe, Bakery, Tea, Vegetarian",4,None,De Waterkant,City Bowl,Cape Town,-33.9171994823,18.417407982100002,0,0,0,0,1,0,0,0,0,0,0,1,0,0,0,0,0,0,0,0,0,0,0,0,0,0,0,0,0,0,0,0,0,0,0,0,0,0,0,0,0,0,0,0,0,0,0,0,0,0,0,0,0,0,0,0,0,0,0,0,0,0,0,0,0,0,1,0,0,0,1,0
Magica Roma,4.0,Very Good,137,260,3,"Italian, Seafood, Pizza",3,None,Pinelands,Southern Suburbs,Cape Town,-33.93962,18.498303,0,0,0,0,0,0,0,0,0,0,0,0,0,0,0,0,0,0,0,0,0,0,0,0,0,0,0,0,0,0,0,0,0,0,0,0,0,0,0,0,1,0,0,0,0,0,0,0,0,0,0,0,0,0,1,0,0,0,0,1,0,0,0,0,0,0,0,0,0,0,0,0
Eagles' Nest,4.0,Very Good,59,300,4,Finger Food,1,None,Constantia,Southern Suburbs,Cape Town,-34.016009,18.414283,0,0,0,0,0,0,0,0,0,0,0,0,0,0,0,0,0,0,0,0,0,0,0,0,0,0,0,1,0,0,0,0,0,0,0,0,0,0,0,0,0,0,0,0,0,0,0,0,0,0,0,0,0,0,0,0,0,0,0,0,0,0,0,0,0,0,0,0,0,0,0,0
Cafe Manhattan,4.0,Very Good,104,300,4,"American, Grill",2,None,Green Point,Atlantic Seaboard,Cape Town,-33.9161989715,18.417298682000002,0,1,0,0,0,0,0,0,0,0,0,0,0,0,0,0,0,0,0,0,0,0,0,0,0,0,0,0,0,0,0,0,0,0,1,0,0,0,0,0,0,0,0,0,0,0,0,0,0,0,0,0,0,0,0,0,0,0,0,0,0,0,0,0,0,0,0,0,0,0,0,0
El Burro Taqueria,4.0,Very Good,116,180,2,Mexican,1,None,Tamboerskloof,City Bowl,Cape Town,-33.929699,18.408778,0,0,0,0,0,0,0,0,0,0,0,0,0,0,0,0,0,0,0,0,0,0,0,0,0,0,0,0,0,0,0,0,0,0,0,0,0,0,0,0,0,0,0,0,0,0,0,0,1,0,0,0,0,0,0,0,0,0,0,0,0,0,0,0,0,0,0,0,0,0,0,0
Camissa - The Table Bay Hotel,4.0,Very Good,28,485,4,"African, Seafood, Grill, Italian",4,The Table Bay Hotel,V & A Waterfront,Atlantic Seaboard,Cape Town,-33.902889,18.422366,1,0,0,0,0,0,0,0,0,0,0,0,0,0,0,0,0,0,0,0,0,0,0,0,0,0,0,0,0,0,0,0,0,0,1,0,0,0,0,0,1,0,0,0,0,0,0,0,0,0,0,0,0,0,0,0,0,0,0,1,0,0,0,0,0,0,0,0,0,0,0,0
ROCA Restaurant,4.0,Very Good,89,350,4,"Mediterranean, Italian",2,None,Franschhoek,Winelands,Cape Town,-33.896503,19.129277,0,0,0,0,0,0,0,0,0,0,0,0,0,0,0,0,0,0,0,0,0,0,0,0,0,0,0,0,0,0,0,0,0,0,0,0,0,0,0,0,1,0,0,0,0,0,0,1,0,0,0,0,0,0,0,0,0,0,0,0,0,0,0,0,0,0,0,0,0,0,0,0
Forneria Italia,4.0,Very Good,107,220,3,"Beverages, Desserts, Italian, Pizza",4,None,Table View,West Coast,Cape Town,-33.821362,18.492554,0,0,0,0,0,0,0,1,0,0,0,0,0,0,0,0,0,0,0,0,0,1,0,0,0,0,0,0,0,0,0,0,0,0,0,0,0,0,0,0,1,0,0,0,0,0,0,0,0,0,0,0,0,0,1,0,0,0,0,0,0,0,0,0,0,0,0,0,0,0,0,0
Shio Restaurant,4.0,Very Good,58,400,4,Japanese,1,None,De Waterkant,City Bowl,Cape Town,-33.915533,18.41699,0,0,0,0,0,0,0,0,0,0,0,0,0,0,0,0,0,0,0,0,0,0,0,0,0,0,0,0,0,0,0,0,0,0,0,0,0,0,0,0,0,1,0,0,0,0,0,0,0,0,0,0,0,0,0,0,0,0,0,0,0,0,0,0,0,0,0,0,0,0,0,0
Burrata,4.0,Very Good,139,360,4,"Italian, Pizza",2,Old Biscuit Mill,Woodstock,City Bowl,Cape Town,-33.927309379099995,18.4570168331,0,0,0,0,0,0,0,0,0,0,0,0,0,0,0,0,0,0,0,0,0,0,0,0,0,0,0,0,0,0,0,0,0,0,0,0,0,0,0,0,1,0,0,0,0,0,0,0,0,0,0,0,0,0,1,0,0,0,0,0,0,0,0,0,0,0,0,0,0,0,0,0
Three Feathers,4.0,Very Good,96,280,3,"Burger, American, Fast Food, Cafe",4,None,Woodstock,City Bowl,Cape Town,-33.927217,18.456361,0,1,0,0,0,0,0,0,0,0,1,1,0,0,0,0,0,0,0,0,0,0,0,0,0,0,1,0,0,0,0,0,0,0,0,0,0,0,0,0,0,0,0,0,0,0,0,0,0,0,0,0,0,0,0,0,0,0,0,0,0,0,0,0,0,0,0,0,0,0,0,0
Olympia Cafe & Deli,4.0,Very Good,159,200,3,"Cafe, Deli",2,Kalk Bay,Bay Area,South Peninsula,Cape Town,-34.12753,18.448032,0,0,0,0,0,0,0,0,0,0,0,1,0,0,0,0,0,0,0,0,1,0,0,0,0,0,0,0,0,0,0,0,0,0,0,0,0,0,0,0,0,0,0,0,0,0,0,0,0,0,0,0,0,0,0,0,0,0,0,0,0,0,0,0,0,0,0,0,0,0,0,0
Table Thirteen,4.0,Very Good,113,225,3,"Cafe, Bakery, Burger, Coffee and Tea, Healthy Food, Mediterranean, Sandwich, Vegetarian",8,None,Green Point,Atlantic Seaboard,Cape Town,-33.9124728282,18.4175907075,0,0,0,0,1,0,0,0,0,0,1,1,0,0,0,0,1,0,0,0,0,0,0,0,0,0,0,0,0,0,0,0,0,0,0,1,0,0,0,0,0,0,0,0,0,0,0,1,0,0,0,0,0,0,0,0,0,0,1,0,0,0,0,0,0,0,0,0,0,0,1,0
The Fat Cactus,3.9,Good,103,350,4,"Mexican, Finger Food",2,None,Woodstock,City Bowl,Cape Town,-33.927079,18.45012,0,0,0,0,0,0,0,0,0,0,0,0,0,0,0,0,0,0,0,0,0,0,0,0,0,0,0,1,0,0,0,0,0,0,0,0,0,0,0,0,0,0,0,0,0,0,0,0,1,0,0,0,0,0,0,0,0,0,0,0,0,0,0,0,0,0,0,0,0,0,0,0
Baskin Robbins,3.9,Good,38,80,1,"Ice Cream, Desserts",2,Canal Walk Mall,Century City,Northern Suburbs,Cape Town,-33.893985,18.509275,0,0,0,0,0,0,0,0,0,0,0,0,0,0,0,0,0,0,0,0,0,1,0,0,0,0,0,0,0,0,0,0,0,0,0,0,1,0,0,0,0,0,0,0,0,0,0,0,0,0,0,0,0,0,0,0,0,0,0,0,0,0,0,0,0,0,0,0,0,0,0,0
The House Of Machines,3.9,Good,93,220,3,Contemporary,1,None,CBD,City Bowl,Cape Town,-33.9212425834,18.4188178182,0,0,0,0,0,0,0,0,0,0,0,0,0,0,0,0,0,1,0,0,0,0,0,0,0,0,0,0,0,0,0,0,0,0,0,0,0,0,0,0,0,0,0,0,0,0,0,0,0,0,0,0,0,0,0,0,0,0,0,0,0,0,0,0,0,0,0,0,0,0,0,0
The Odyssey,3.9,Good,181,250,3,"Burger, Finger Food, Grill",3,None,CBD,City Bowl,Cape Town,-33.9250654356,18.4139258042,0,0,0,0,0,0,0,0,0,0,1,0,0,0,0,0,0,0,0,0,0,0,0,0,0,0,0,1,0,0,0,0,0,0,1,0,0,0,0,0,0,0,0,0,0,0,0,0,0,0,0,0,0,0,0,0,0,0,0,0,0,0,0,0,0,0,0,0,0,0,0,0
Basic Bistro,3.9,Good,154,300,4,"Cafe, Burger, South African",3,None,Stellenbosch,Winelands,Cape Town,-33.937937,18.861819,0,0,0,0,0,0,0,0,0,0,1,1,0,0,0,0,0,0,0,0,0,0,0,0,0,0,0,0,0,0,0,0,0,0,0,0,0,0,0,0,0,0,0,0,0,0,0,0,0,0,0,0,0,0,0,0,0,0,0,0,1,0,0,0,0,0,0,0,0,0,0,0
Banana Jam Cafe,3.9,Good,237,250,3,"Grill, Burger, Pizza, Caribbean",4,Harfield Village,Claremont,Southern Suburbs,Cape Town,-33.994322,18.474012,0,0,0,0,0,0,0,0,0,0,1,0,0,0,1,0,0,0,0,0,0,0,0,0,0,0,0,0,0,0,0,0,0,0,1,0,0,0,0,0,0,0,0,0,0,0,0,0,0,0,0,0,0,0,1,0,0,0,0,0,0,0,0,0,0,0,0,0,0,0,0,0
Lefty's,3.9,Good,244,200,3,Grill,1,None,CBD,City Bowl,Cape Town,-33.9293457358,18.4228729829,0,0,0,0,0,0,0,0,0,0,0,0,0,0,0,0,0,0,0,0,0,0,0,0,0,0,0,0,0,0,0,0,0,0,1,0,0,0,0,0,0,0,0,0,0,0,0,0,0,0,0,0,0,0,0,0,0,0,0,0,0,0,0,0,0,0,0,0,0,0,0,0
Osumo,3.9,Good,75,150,2,Healthy Food,1,Cavendish Square,Claremont,Southern Suburbs,Cape Town,-33.980257,18.463906,0,0,0,0,0,0,0,0,0,0,0,0,0,0,0,0,0,0,0,0,0,0,0,0,0,0,0,0,0,0,0,0,0,0,0,1,0,0,0,0,0,0,0,0,0,0,0,0,0,0,0,0,0,0,0,0,0,0,0,0,0,0,0,0,0,0,0,0,0,0,0,0
DV Artisan Chocolate,3.9,Good,23,70,1,Desserts,1,Spice Route Farm,Paarl,Winelands,Cape Town,-33.760864,18.916703,0,0,0,0,0,0,0,0,0,0,0,0,0,0,0,0,0,0,0,0,0,1,0,0,0,0,0,0,0,0,0,0,0,0,0,0,0,0,0,0,0,0,0,0,0,0,0,0,0,0,0,0,0,0,0,0,0,0,0,0,0,0,0,0,0,0,0,0,0,0,0,0
Van Ryn's Distillery and Brandy cellar,3.9,Good,18,40,1,Drinks Only,1,None,Stellenbosch,Winelands,Cape Town,-33.9620300336,18.800514060999998,0,0,0,0,0,0,0,0,0,0,0,0,0,0,0,0,0,0,0,0,0,0,1,0,0,0,0,0,0,0,0,0,0,0,0,0,0,0,0,0,0,0,0,0,0,0,0,0,0,0,0,0,0,0,0,0,0,0,0,0,0,0,0,0,0,0,0,0,0,0,0,0
Vergenoegd Wine Estate,3.9,Good,22,60,1,Drinks Only,1,None,Somerset West,Helderberg,Cape Town,-34.076988,18.837788,0,0,0,0,0,0,0,0,0,0,0,0,0,0,0,0,0,0,0,0,0,0,1,0,0,0,0,0,0,0,0,0,0,0,0,0,0,0,0,0,0,0,0,0,0,0,0,0,0,0,0,0,0,0,0,0,0,0,0,0,0,0,0,0,0,0,0,0,0,0,0,0
The Dog's Bollocks at YARD,3.9,Good,281,220,3,Burger,1,Yard,Gardens,City Bowl,Cape Town,-33.932205,18.419365,0,0,0,0,0,0,0,0,0,0,1,0,0,0,0,0,0,0,0,0,0,0,0,0,0,0,0,0,0,0,0,0,0,0,0,0,0,0,0,0,0,0,0,0,0,0,0,0,0,0,0,0,0,0,0,0,0,0,0,0,0,0,0,0,0,0,0,0,0,0,0,0
Balducci,3.9,Good,236,300,4,"Italian, Sushi, Pizza",3,Victoria Wharf,V & A Waterfront,Atlantic Seaboard,Cape Town,-33.9035,18.4208333333,0,0,0,0,0,0,0,0,0,0,0,0,0,0,0,0,0,0,0,0,0,0,0,0,0,0,0,0,0,0,0,0,0,0,0,0,0,0,0,0,1,0,0,0,0,0,0,0,0,0,0,0,0,0,1,0,0,0,0,0,0,0,0,0,1,0,0,0,0,0,0,0
Tasting Room at Babylonstoren,3.9,Good,35,100,2,Drinks Only,1,Babylonstoren Wine Estate,Franschhoek,Winelands,Cape Town,-33.825173,18.924248,0,0,0,0,0,0,0,0,0,0,0,0,0,0,0,0,0,0,0,0,0,0,1,0,0,0,0,0,0,0,0,0,0,0,0,0,0,0,0,0,0,0,0,0,0,0,0,0,0,0,0,0,0,0,0,0,0,0,0,0,0,0,0,0,0,0,0,0,0,0,0,0
Spice Route Tasting Room,3.9,Good,31,100,2,Drinks Only,1,Spice Route Farm,Paarl,Winelands,Cape Town,-33.763248,18.918792,0,0,0,0,0,0,0,0,0,0,0,0,0,0,0,0,0,0,0,0,0,0,1,0,0,0,0,0,0,0,0,0,0,0,0,0,0,0,0,0,0,0,0,0,0,0,0,0,0,0,0,0,0,0,0,0,0,0,0,0,0,0,0,0,0,0,0,0,0,0,0,0
The Goatshed Restaurant,3.9,Good,114,600,4,South African,1,None,Paarl,Winelands,Cape Town,-33.771753,18.924182,0,0,0,0,0,0,0,0,0,0,0,0,0,0,0,0,0,0,0,0,0,0,0,0,0,0,0,0,0,0,0,0,0,0,0,0,0,0,0,0,0,0,0,0,0,0,0,0,0,0,0,0,0,0,0,0,0,0,0,0,1,0,0,0,0,0,0,0,0,0,0,0
Beerhouse on Long,3.9,Good,301,300,4,"Grill, German",2,None,CBD,City Bowl,Cape Town,-33.9255116695,18.4159361199,0,0,0,0,0,0,0,0,0,0,0,0,0,0,0,0,0,0,0,0,0,0,0,0,0,0,0,0,0,0,0,0,1,0,1,0,0,0,0,0,0,0,0,0,0,0,0,0,0,0,0,0,0,0,0,0,0,0,0,0,0,0,0,0,0,0,0,0,0,0,0,0
Afternoon Tea @ Mount Nelson,3.9,Good,21,150,2,Cafe,1,Mount Nelson Hotel,Gardens,City Bowl,Cape Town,-33.932033,18.411551,0,0,0,0,0,0,0,0,0,0,0,1,0,0,0,0,0,0,0,0,0,0,0,0,0,0,0,0,0,0,0,0,0,0,0,0,0,0,0,0,0,0,0,0,0,0,0,0,0,0,0,0,0,0,0,0,0,0,0,0,0,0,0,0,0,0,0,0,0,0,0,0
Bombay Bicycle Club,3.9,Good,277,450,4,"Mediterranean, Steak, Finger Food",3,None,Gardens,City Bowl,Cape Town,-33.936626,18.404738,0,0,0,0,0,0,0,0,0,0,0,0,0,0,0,0,0,0,0,0,0,0,0,0,0,0,0,1,0,0,0,0,0,0,0,0,0,0,0,0,0,0,0,0,0,0,0,1,0,0,0,0,0,0,0,0,0,0,0,0,0,0,1,0,0,0,0,0,0,0,0,0
Cassis,3.9,Good,138,200,3,"Bakery, Cafe",2,None,Newlands,Southern Suburbs,Cape Town,-33.976,18.4593333333,0,0,0,0,1,0,0,0,0,0,0,1,0,0,0,0,0,0,0,0,0,0,0,0,0,0,0,0,0,0,0,0,0,0,0,0,0,0,0,0,0,0,0,0,0,0,0,0,0,0,0,0,0,0,0,0,0,0,0,0,0,0,0,0,0,0,0,0,0,0,0,0
La Petite Ferme,3.9,Good,54,500,4,European,1,None,Franschhoek,Winelands,Cape Town,-33.9186333333,19.1359805556,0,0,0,0,0,0,0,0,0,0,0,0,0,0,0,0,0,0,0,0,0,0,0,0,0,1,0,0,0,0,0,0,0,0,0,0,0,0,0,0,0,0,0,0,0,0,0,0,0,0,0,0,0,0,0,0,0,0,0,0,0,0,0,0,0,0,0,0,0,0,0,0
Longridge Restaurant,3.9,Good,29,450,4,European,1,Longridge Wine Estate,Stellenbosch,Winelands,Cape Town,-34.0158111111,18.8327638889,0,0,0,0,0,0,0,0,0,0,0,0,0,0,0,0,0,0,0,0,0,0,0,0,0,1,0,0,0,0,0,0,0,0,0,0,0,0,0,0,0,0,0,0,0,0,0,0,0,0,0,0,0,0,0,0,0,0,0,0,0,0,0,0,0,0,0,0,0,0,0,0
The Power & The Glory,3.9,Good,119,120,2,Cafe,1,None,Tamboerskloof,City Bowl,Cape Town,-33.929692,18.407742,0,0,0,0,0,0,0,0,0,0,0,1,0,0,0,0,0,0,0,0,0,0,0,0,0,0,0,0,0,0,0,0,0,0,0,0,0,0,0,0,0,0,0,0,0,0,0,0,0,0,0,0,0,0,0,0,0,0,0,0,0,0,0,0,0,0,0,0,0,0,0,0
Kahve Road,3.9,Good,52,300,4,"Bakery, Burger, Cafe, French",4,None,Claremont,Southern Suburbs,Cape Town,-33.9807289074,18.4631137609,0,0,0,0,1,0,0,0,0,0,1,1,0,0,0,0,0,0,0,0,0,0,0,0,0,0,0,0,0,1,0,0,0,0,0,0,0,0,0,0,0,0,0,0,0,0,0,0,0,0,0,0,0,0,0,0,0,0,0,0,0,0,0,0,0,0,0,0,0,0,0,0
Boston Coffee,3.9,Good,47,150,2,"Cafe, Deli",2,None,Bellville,Northern Suburbs,Cape Town,-33.893101326,18.6230542883,0,0,0,0,0,0,0,0,0,0,0,1,0,0,0,0,0,0,0,0,1,0,0,0,0,0,0,0,0,0,0,0,0,0,0,0,0,0,0,0,0,0,0,0,0,0,0,0,0,0,0,0,0,0,0,0,0,0,0,0,0,0,0,0,0,0,0,0,0,0,0,0
Loaves On Long,3.9,Good,63,200,3,Cafe,1,None,CBD,City Bowl,Cape Town,-33.9209220803,18.4209505096,0,0,0,0,0,0,0,0,0,0,0,1,0,0,0,0,0,0,0,0,0,0,0,0,0,0,0,0,0,0,0,0,0,0,0,0,0,0,0,0,0,0,0,0,0,0,0,0,0,0,0,0,0,0,0,0,0,0,0,0,0,0,0,0,0,0,0,0,0,0,0,0
Dapper Coffee Co,3.9,Good,63,200,3,"Cafe, Burger, Contemporary, Healthy Food, Mexican",5,None,CBD,City Bowl,Cape Town,-33.9197318682,18.4193462133,0,0,0,0,0,0,0,0,0,0,1,1,0,0,0,0,0,1,0,0,0,0,0,0,0,0,0,0,0,0,0,0,0,0,0,1,0,0,0,0,0,0,0,0,0,0,0,0,1,0,0,0,0,0,0,0,0,0,0,0,0,0,0,0,0,0,0,0,0,0,0,0
The Gardener's Cottage,3.9,Good,92,150,2,"Cafe, Deli",2,None,Newlands,Southern Suburbs,Cape Town,-33.969893,18.457192,0,0,0,0,0,0,0,0,0,0,0,1,0,0,0,0,0,0,0,0,1,0,0,0,0,0,0,0,0,0,0,0,0,0,0,0,0,0,0,0,0,0,0,0,0,0,0,0,0,0,0,0,0,0,0,0,0,0,0,0,0,0,0,0,0,0,0,0,0,0,0,0
Rick's Cafe Americain,3.9,Good,267,320,4,"Moroccan, Grill, Seafood, Burger, Finger Food",5,None,Gardens,City Bowl,Cape Town,-33.928372,18.410481,0,0,0,0,0,0,0,0,0,0,1,0,0,0,0,0,0,0,0,0,0,0,0,0,0,0,0,1,0,0,0,0,0,0,1,0,0,0,0,0,0,0,0,0,0,0,0,0,0,0,0,1,0,0,0,0,0,0,0,1,0,0,0,0,0,0,0,0,0,0,0,0
Shift Espresso Bar,3.9,Good,102,180,2,"Cafe, Bakery",2,None,Green Point,Atlantic Seaboard,Cape Town,-33.9087395656,18.4120858088,0,0,0,0,1,0,0,0,0,0,0,1,0,0,0,0,0,0,0,0,0,0,0,0,0,0,0,0,0,0,0,0,0,0,0,0,0,0,0,0,0,0,0,0,0,0,0,0,0,0,0,0,0,0,0,0,0,0,0,0,0,0,0,0,0,0,0,0,0,0,0,0
Bread And Butter,3.9,Good,157,200,3,"Cafe, Bakery",2,None,Parklands,West Coast,Cape Town,-33.799744666399995,18.502135612100002,0,0,0,0,1,0,0,0,0,0,0,1,0,0,0,0,0,0,0,0,0,0,0,0,0,0,0,0,0,0,0,0,0,0,0,0,0,0,0,0,0,0,0,0,0,0,0,0,0,0,0,0,0,0,0,0,0,0,0,0,0,0,0,0,0,0,0,0,0,0,0,0
Asoka,3.9,Good,186,300,4,Asian,1,None,Gardens,City Bowl,Cape Town,-33.9315,18.4088333333,0,0,1,0,0,0,0,0,0,0,0,0,0,0,0,0,0,0,0,0,0,0,0,0,0,0,0,0,0,0,0,0,0,0,0,0,0,0,0,0,0,0,0,0,0,0,0,0,0,0,0,0,0,0,0,0,0,0,0,0,0,0,0,0,0,0,0,0,0,0,0,0
Tjing Tjing Rooftop Bar,3.9,Good,133,350,4,Japanese,1,None,CBD,City Bowl,Cape Town,-33.9222508248,18.419053182,0,0,0,0,0,0,0,0,0,0,0,0,0,0,0,0,0,0,0,0,0,0,0,0,0,0,0,0,0,0,0,0,0,0,0,0,0,0,0,0,0,1,0,0,0,0,0,0,0,0,0,0,0,0,0,0,0,0,0,0,0,0,0,0,0,0,0,0,0,0,0,0
The Table,3.9,Good,26,550,4,"European, Contemporary",2,None,Stellenbosch,Winelands,Cape Town,-33.8180769178,18.82742621,0,0,0,0,0,0,0,0,0,0,0,0,0,0,0,0,0,1,0,0,0,0,0,0,0,1,0,0,0,0,0,0,0,0,0,0,0,0,0,0,0,0,0,0,0,0,0,0,0,0,0,0,0,0,0,0,0,0,0,0,0,0,0,0,0,0,0,0,0,0,0,0
Groot Constantia Winery,3.9,Good,52,90,1,Drinks Only,1,Groot Constantia Wine Estate,Constantia,Southern Suburbs,Cape Town,34.0267317,18.4225417,0,0,0,0,0,0,0,0,0,0,0,0,0,0,0,0,0,0,0,0,0,0,1,0,0,0,0,0,0,0,0,0,0,0,0,0,0,0,0,0,0,0,0,0,0,0,0,0,0,0,0,0,0,0,0,0,0,0,0,0,0,0,0,0,0,0,0,0,0,0,0,0
The Sidewalk Cafe,3.9,Good,156,220,3,Cafe,1,None,Vredehoek,City Bowl,Cape Town,-33.938956,18.42794,0,0,0,0,0,0,0,0,0,0,0,1,0,0,0,0,0,0,0,0,0,0,0,0,0,0,0,0,0,0,0,0,0,0,0,0,0,0,0,0,0,0,0,0,0,0,0,0,0,0,0,0,0,0,0,0,0,0,0,0,0,0,0,0,0,0,0,0,0,0,0,0
The Restaurant at Clos Malverne,3.9,Good,52,450,4,"African, Seafood, Steak",3,None,Stellenbosch,Winelands,Cape Town,-33.9108333333,18.8138333333,1,0,0,0,0,0,0,0,0,0,0,0,0,0,0,0,0,0,0,0,0,0,0,0,0,0,0,0,0,0,0,0,0,0,0,0,0,0,0,0,0,0,0,0,0,0,0,0,0,0,0,0,0,0,0,0,0,0,0,1,0,0,1,0,0,0,0,0,0,0,0,0
Morgenhof Restaurant,3.9,Good,33,520,4,European,1,None,Stellenbosch,Winelands,Cape Town,-33.8932877907,18.8585871086,0,0,0,0,0,0,0,0,0,0,0,0,0,0,0,0,0,0,0,0,0,0,0,0,0,1,0,0,0,0,0,0,0,0,0,0,0,0,0,0,0,0,0,0,0,0,0,0,0,0,0,0,0,0,0,0,0,0,0,0,0,0,0,0,0,0,0,0,0,0,0,0
The Conservatory - The Cellars Hohenort,3.9,Good,48,600,4,"European, African, Grill",3,The Cellars-Hohenhort,Constantia,Southern Suburbs,Cape Town,-34.002226,18.434345,1,0,0,0,0,0,0,0,0,0,0,0,0,0,0,0,0,0,0,0,0,0,0,0,0,1,0,0,0,0,0,0,0,0,1,0,0,0,0,0,0,0,0,0,0,0,0,0,0,0,0,0,0,0,0,0,0,0,0,0,0,0,0,0,0,0,0,0,0,0,0,0
The Bombay Brasserie - The Taj,3.9,Good,74,450,4,Indian,1,Taj Cape Town,CBD,City Bowl,Cape Town,-33.924666215500004,18.4198947251,0,0,0,0,0,0,0,0,0,0,0,0,0,0,0,0,0,0,0,0,0,0,0,0,0,0,0,0,0,0,0,0,0,0,0,0,0,1,0,0,0,0,0,0,0,0,0,0,0,0,0,0,0,0,0,0,0,0,0,0,0,0,0,0,0,0,0,0,0,0,0,0
Da Vincis On Kloof,3.9,Good,354,300,4,"Burger, Pizza, Grill",3,None,Gardens,City Bowl,Cape Town,-33.9325,18.4083333333,0,0,0,0,0,0,0,0,0,0,1,0,0,0,0,0,0,0,0,0,0,0,0,0,0,0,0,0,0,0,0,0,0,0,1,0,0,0,0,0,0,0,0,0,0,0,0,0,0,0,0,0,0,0,1,0,0,0,0,0,0,0,0,0,0,0,0,0,0,0,0,0
Gibson's Gourmet Burgers & Ribs,3.9,Good,365,270,3,"Burger, American, Grill",3,Victoria Wharf,V & A Waterfront,Atlantic Seaboard,Cape Town,-33.9042665027,18.4203004092,0,1,0,0,0,0,0,0,0,0,1,0,0,0,0,0,0,0,0,0,0,0,0,0,0,0,0,0,0,0,0,0,0,0,1,0,0,0,0,0,0,0,0,0,0,0,0,0,0,0,0,0,0,0,0,0,0,0,0,0,0,0,0,0,0,0,0,0,0,0,0,0
The Taproom,3.9,Good,266,250,3,"American, Beverages, Burger, Grill",4,None,Woodstock,City Bowl,Cape Town,-33.933453,18.460394,0,1,0,0,0,0,0,1,0,0,1,0,0,0,0,0,0,0,0,0,0,0,0,0,0,0,0,0,0,0,0,0,0,0,1,0,0,0,0,0,0,0,0,0,0,0,0,0,0,0,0,0,0,0,0,0,0,0,0,0,0,0,0,0,0,0,0,0,0,0,0,0
Jerry's Burger Bar,3.9,Good,184,250,3,"Burger, American",2,Portico Building,Table View,West Coast,Cape Town,-33.822966,18.478003,0,1,0,0,0,0,0,0,0,0,1,0,0,0,0,0,0,0,0,0,0,0,0,0,0,0,0,0,0,0,0,0,0,0,0,0,0,0,0,0,0,0,0,0,0,0,0,0,0,0,0,0,0,0,0,0,0,0,0,0,0,0,0,0,0,0,0,0,0,0,0,0
Peregrine Cafe,3.9,Good,28,150,2,Cafe,1,None,Gordons Bay,Helderberg,Cape Town,-34.17,19.0,0,0,0,0,0,0,0,0,0,0,0,1,0,0,0,0,0,0,0,0,0,0,0,0,0,0,0,0,0,0,0,0,0,0,0,0,0,0,0,0,0,0,0,0,0,0,0,0,0,0,0,0,0,0,0,0,0,0,0,0,0,0,0,0,0,0,0,0,0,0,0,0
Ground Art Caffe,3.9,Good,30,200,3,"Cafe, Beverages",2,None,De Waterkant,City Bowl,Cape Town,-33.917122,18.416935,0,0,0,0,0,0,0,1,0,0,0,1,0,0,0,0,0,0,0,0,0,0,0,0,0,0,0,0,0,0,0,0,0,0,0,0,0,0,0,0,0,0,0,0,0,0,0,0,0,0,0,0,0,0,0,0,0,0,0,0,0,0,0,0,0,0,0,0,0,0,0,0
The Wild Fig,3.9,Good,134,380,4,"French, Mediterranean, Seafood, Grill",4,None,Observatory,Southern Suburbs,Cape Town,-33.942586,18.479948,0,0,0,0,0,0,0,0,0,0,0,0,0,0,0,0,0,0,0,0,0,0,0,0,0,0,0,0,0,1,0,0,0,0,1,0,0,0,0,0,0,0,0,0,0,0,0,1,0,0,0,0,0,0,0,0,0,0,0,1,0,0,0,0,0,0,0,0,0,0,0,0
Food Lovers Market Cafe,3.9,Good,57,160,2,Cafe,1,None,CBD,City Bowl,Cape Town,-33.9237762402,18.4201971442,0,0,0,0,0,0,0,0,0,0,0,1,0,0,0,0,0,0,0,0,0,0,0,0,0,0,0,0,0,0,0,0,0,0,0,0,0,0,0,0,0,0,0,0,0,0,0,0,0,0,0,0,0,0,0,0,0,0,0,0,0,0,0,0,0,0,0,0,0,0,0,0
Scheckter's RAW,3.9,Good,106,160,2,"Cafe, Healthy Food",2,None,Sea Point,Atlantic Seaboard,Cape Town,-33.922243,18.380806,0,0,0,0,0,0,0,0,0,0,0,1,0,0,0,0,0,0,0,0,0,0,0,0,0,0,0,0,0,0,0,0,0,0,0,1,0,0,0,0,0,0,0,0,0,0,0,0,0,0,0,0,0,0,0,0,0,0,0,0,0,0,0,0,0,0,0,0,0,0,0,0
Woolworths Cafe,3.9,Good,112,230,3,Cafe,1,Cavendish Square,Claremont,Southern Suburbs,Cape Town,-33.979971,18.463085,0,0,0,0,0,0,0,0,0,0,0,1,0,0,0,0,0,0,0,0,0,0,0,0,0,0,0,0,0,0,0,0,0,0,0,0,0,0,0,0,0,0,0,0,0,0,0,0,0,0,0,0,0,0,0,0,0,0,0,0,0,0,0,0,0,0,0,0,0,0,0,0
Mondiall Kitchen & Bar,3.9,Good,286,630,4,"Seafood, Mediterranean, Cape Malay, South African, Burger",5,None,V & A Waterfront,Atlantic Seaboard,Cape Town,-33.906119,18.420405,0,0,0,0,0,0,0,0,0,0,1,0,0,1,0,0,0,0,0,0,0,0,0,0,0,0,0,0,0,0,0,0,0,0,0,0,0,0,0,0,0,0,0,0,0,0,0,1,0,0,0,0,0,0,0,0,0,0,0,1,1,0,0,0,0,0,0,0,0,0,0,0
Beluga,3.9,Good,662,500,4,"Seafood, Asian, Grill, Sushi",4,None,Green Point,Atlantic Seaboard,Cape Town,-33.9126706585,18.4182770178,0,0,1,0,0,0,0,0,0,0,0,0,0,0,0,0,0,0,0,0,0,0,0,0,0,0,0,0,0,0,0,0,0,0,1,0,0,0,0,0,0,0,0,0,0,0,0,0,0,0,0,0,0,0,0,0,0,0,0,1,0,0,0,0,1,0,0,0,0,0,0,0
The Bungalow,3.9,Good,203,650,4,"Seafood, Mediterranean, Grill, Sushi",4,None,Camps Bay,Atlantic Seaboard,Cape Town,-33.960169,18.375269,0,0,0,0,0,0,0,0,0,0,0,0,0,0,0,0,0,0,0,0,0,0,0,0,0,0,0,0,0,0,0,0,0,0,1,0,0,0,0,0,0,0,0,0,0,0,0,1,0,0,0,0,0,0,0,0,0,0,0,1,0,0,0,0,1,0,0,0,0,0,0,0
The Leopard Bar - 12 Apostles Hotel & Spa,3.9,Good,75,550,4,"American, European",2,12 Apostles Hotel & Spa,Camps Bay,Atlantic Seaboard,Cape Town,-33.983496,18.358615,0,1,0,0,0,0,0,0,0,0,0,0,0,0,0,0,0,0,0,0,0,0,0,0,0,1,0,0,0,0,0,0,0,0,0,0,0,0,0,0,0,0,0,0,0,0,0,0,0,0,0,0,0,0,0,0,0,0,0,0,0,0,0,0,0,0,0,0,0,0,0,0
Culture Club Cheese,3.9,Good,79,300,4,"Cafe, Healthy Food",2,None,CBD,City Bowl,Cape Town,-33.9254585333,18.4135167673,0,0,0,0,0,0,0,0,0,0,0,1,0,0,0,0,0,0,0,0,0,0,0,0,0,0,0,0,0,0,0,0,0,0,0,1,0,0,0,0,0,0,0,0,0,0,0,0,0,0,0,0,0,0,0,0,0,0,0,0,0,0,0,0,0,0,0,0,0,0,0,0
Vasco da Gama,3.8,Good,87,250,3,"Portuguese, Steak, Seafood",3,None,Green Point,Atlantic Seaboard,Cape Town,-33.9154839163,18.4189522639,0,0,0,0,0,0,0,0,0,0,0,0,0,0,0,0,0,0,0,0,0,0,0,0,0,0,0,0,0,0,0,0,0,0,0,0,0,0,0,0,0,0,0,0,0,0,0,0,0,0,0,0,0,0,0,1,0,0,0,1,0,0,1,0,0,0,0,0,0,0,0,0
Zenzero,3.8,Good,125,550,4,"Italian, Seafood",2,The Promenade,Camps Bay,Atlantic Seaboard,Cape Town,-33.9536666667,18.3776666667,0,0,0,0,0,0,0,0,0,0,0,0,0,0,0,0,0,0,0,0,0,0,0,0,0,0,0,0,0,0,0,0,0,0,0,0,0,0,0,0,1,0,0,0,0,0,0,0,0,0,0,0,0,0,0,0,0,0,0,1,0,0,0,0,0,0,0,0,0,0,0,0
Fire & Ice! Restaurant,3.8,Good,195,555,4,"American, Italian, Seafood, African",4,None,Gardens,City Bowl,Cape Town,-33.926472,18.411524,1,1,0,0,0,0,0,0,0,0,0,0,0,0,0,0,0,0,0,0,0,0,0,0,0,0,0,0,0,0,0,0,0,0,0,0,0,0,0,0,1,0,0,0,0,0,0,0,0,0,0,0,0,0,0,0,0,0,0,1,0,0,0,0,0,0,0,0,0,0,0,0
Cafe Bon Bon,3.8,Good,50,360,4,Cafe,1,None,Franschhoek,Winelands,Cape Town,-33.9302166667,19.1179083333,0,0,0,0,0,0,0,0,0,0,0,1,0,0,0,0,0,0,0,0,0,0,0,0,0,0,0,0,0,0,0,0,0,0,0,0,0,0,0,0,0,0,0,0,0,0,0,0,0,0,0,0,0,0,0,0,0,0,0,0,0,0,0,0,0,0,0,0,0,0,0,0
Brocka,3.8,Good,30,100,2,Fast Food,1,None,Century City,Northern Suburbs,Cape Town,-33.8945727,18.5105477,0,0,0,0,0,0,0,0,0,0,0,0,0,0,0,0,0,0,0,0,0,0,0,0,0,0,1,0,0,0,0,0,0,0,0,0,0,0,0,0,0,0,0,0,0,0,0,0,0,0,0,0,0,0,0,0,0,0,0,0,0,0,0,0,0,0,0,0,0,0,0,0
Crumbs and Cream,3.8,Good,130,100,2,"Ice Cream, Desserts",2,None,Sea Point,Atlantic Seaboard,Cape Town,-33.918939,18.386679,0,0,0,0,0,0,0,0,0,0,0,0,0,0,0,0,0,0,0,0,0,1,0,0,0,0,0,0,0,0,0,0,0,0,0,0,1,0,0,0,0,0,0,0,0,0,0,0,0,0,0,0,0,0,0,0,0,0,0,0,0,0,0,0,0,0,0,0,0,0,0,0
Mischu,3.8,Good,33,120,2,Cafe,1,None,Sea Point,Atlantic Seaboard,Cape Town,-33.92204,18.381827,0,0,0,0,0,0,0,0,0,0,0,1,0,0,0,0,0,0,0,0,0,0,0,0,0,0,0,0,0,0,0,0,0,0,0,0,0,0,0,0,0,0,0,0,0,0,0,0,0,0,0,0,0,0,0,0,0,0,0,0,0,0,0,0,0,0,0,0,0,0,0,0
Bootlegger Coffee Company,3.8,Good,190,200,3,Cafe,1,None,Sea Point,Atlantic Seaboard,Cape Town,-33.91969,18.385582,0,0,0,0,0,0,0,0,0,0,0,1,0,0,0,0,0,0,0,0,0,0,0,0,0,0,0,0,0,0,0,0,0,0,0,0,0,0,0,0,0,0,0,0,0,0,0,0,0,0,0,0,0,0,0,0,0,0,0,0,0,0,0,0,0,0,0,0,0,0,0,0
La Petite Tarte,3.8,Good,80,285,3,"Cafe, Desserts",2,Cape Quarter Lifestyle Center,Green Point,Atlantic Seaboard,Cape Town,-33.9162674162,18.4175089002,0,0,0,0,0,0,0,0,0,0,0,1,0,0,0,0,0,0,0,0,0,1,0,0,0,0,0,0,0,0,0,0,0,0,0,0,0,0,0,0,0,0,0,0,0,0,0,0,0,0,0,0,0,0,0,0,0,0,0,0,0,0,0,0,0,0,0,0,0,0,0,0
Plant,3.8,Good,136,180,2,"Cafe, Healthy Food, Deli",3,None,CBD,City Bowl,Cape Town,-33.9256730254,18.4146432951,0,0,0,0,0,0,0,0,0,0,0,1,0,0,0,0,0,0,0,0,1,0,0,0,0,0,0,0,0,0,0,0,0,0,0,1,0,0,0,0,0,0,0,0,0,0,0,0,0,0,0,0,0,0,0,0,0,0,0,0,0,0,0,0,0,0,0,0,0,0,0,0
Yours Truly,3.8,Good,199,200,3,Cafe,1,None,Gardens,City Bowl,Cape Town,-33.930329,18.410575,0,0,0,0,0,0,0,0,0,0,0,1,0,0,0,0,0,0,0,0,0,0,0,0,0,0,0,0,0,0,0,0,0,0,0,0,0,0,0,0,0,0,0,0,0,0,0,0,0,0,0,0,0,0,0,0,0,0,0,0,0,0,0,0,0,0,0,0,0,0,0,0
Honeybun,3.8,Good,144,200,3,Cafe,1,None,Observatory,Southern Suburbs,Cape Town,-33.939166666700004,18.469,0,0,0,0,0,0,0,0,0,0,0,1,0,0,0,0,0,0,0,0,0,0,0,0,0,0,0,0,0,0,0,0,0,0,0,0,0,0,0,0,0,0,0,0,0,0,0,0,0,0,0,0,0,0,0,0,0,0,0,0,0,0,0,0,0,0,0,0,0,0,0,0
Bootlegger Coffee Company,3.8,Good,156,220,3,Cafe,1,None,Kenilworth,Southern Suburbs,Cape Town,-33.9965309746,18.4687256813,0,0,0,0,0,0,0,0,0,0,0,1,0,0,0,0,0,0,0,0,0,0,0,0,0,0,0,0,0,0,0,0,0,0,0,0,0,0,0,0,0,0,0,0,0,0,0,0,0,0,0,0,0,0,0,0,0,0,0,0,0,0,0,0,0,0,0,0,0,0,0,0
Hillcrest Restaurant,3.8,Good,82,300,4,"Cafe, Mediterranean",2,None,Durbanville,Northern Suburbs,Cape Town,-33.825656,18.589207,0,0,0,0,0,0,0,0,0,0,0,1,0,0,0,0,0,0,0,0,0,0,0,0,0,0,0,0,0,0,0,0,0,0,0,0,0,0,0,0,0,0,0,0,0,0,0,1,0,0,0,0,0,0,0,0,0,0,0,0,0,0,0,0,0,0,0,0,0,0,0,0
Pepenero,3.8,Good,170,500,4,"Seafood, Italian",2,None,Mouille Point,Atlantic Seaboard,Cape Town,-33.899975480900004,18.4056733176,0,0,0,0,0,0,0,0,0,0,0,0,0,0,0,0,0,0,0,0,0,0,0,0,0,0,0,0,0,0,0,0,0,0,0,0,0,0,0,0,1,0,0,0,0,0,0,0,0,0,0,0,0,0,0,0,0,0,0,1,0,0,0,0,0,0,0,0,0,0,0,0
Lime Tree Cafe,3.8,Good,63,250,3,"Healthy Food, Bakery, Seafood, Burger, Beverages, Contemporary, Desserts, Grill",8,None,Bergvliet,Southern Suburbs,Cape Town,-34.052719,18.456745,0,0,0,0,1,0,0,1,0,0,1,0,0,0,0,0,0,1,0,0,0,1,0,0,0,0,0,0,0,0,0,0,0,0,1,1,0,0,0,0,0,0,0,0,0,0,0,0,0,0,0,0,0,0,0,0,0,0,0,1,0,0,0,0,0,0,0,0,0,0,0,0
Chelsea Café,3.8,Good,32,180,2,Cafe,1,None,Somerset West,Helderberg,Cape Town,-34.07962,18.847153,0,0,0,0,0,0,0,0,0,0,0,1,0,0,0,0,0,0,0,0,0,0,0,0,0,0,0,0,0,0,0,0,0,0,0,0,0,0,0,0,0,0,0,0,0,0,0,0,0,0,0,0,0,0,0,0,0,0,0,0,0,0,0,0,0,0,0,0,0,0,0,0
High Tea,3.8,Good,36,190,2,Cafe,1,None,Plumstead,Southern Suburbs,Cape Town,-34.014254,18.461328,0,0,0,0,0,0,0,0,0,0,0,1,0,0,0,0,0,0,0,0,0,0,0,0,0,0,0,0,0,0,0,0,0,0,0,0,0,0,0,0,0,0,0,0,0,0,0,0,0,0,0,0,0,0,0,0,0,0,0,0,0,0,0,0,0,0,0,0,0,0,0,0
Yours Truly,3.8,Good,72,200,3,Cafe,1,None,CBD,City Bowl,Cape Town,-33.9244781502,18.4167334065,0,0,0,0,0,0,0,0,0,0,0,1,0,0,0,0,0,0,0,0,0,0,0,0,0,0,0,0,0,0,0,0,0,0,0,0,0,0,0,0,0,0,0,0,0,0,0,0,0,0,0,0,0,0,0,0,0,0,0,0,0,0,0,0,0,0,0,0,0,0,0,0
Osumo,3.8,Good,26,150,2,Healthy Food,1,None,Green Point,Atlantic Seaboard,Cape Town,-33.9089744124,18.4123634174,0,0,0,0,0,0,0,0,0,0,0,0,0,0,0,0,0,0,0,0,0,0,0,0,0,0,0,0,0,0,0,0,0,0,0,1,0,0,0,0,0,0,0,0,0,0,0,0,0,0,0,0,0,0,0,0,0,0,0,0,0,0,0,0,0,0,0,0,0,0,0,0
Melissa's Mantra Cafe,3.8,Good,52,250,3,"Cafe, Burger, Healthy Food",3,None,Camps Bay,Atlantic Seaboard,Cape Town,-33.948684,18.378983,0,0,0,0,0,0,0,0,0,0,1,1,0,0,0,0,0,0,0,0,0,0,0,0,0,0,0,0,0,0,0,0,0,0,0,1,0,0,0,0,0,0,0,0,0,0,0,0,0,0,0,0,0,0,0,0,0,0,0,0,0,0,0,0,0,0,0,0,0,0,0,0
O'ways Teacafe,3.8,Good,51,180,2,Cafe,1,None,Claremont,Southern Suburbs,Cape Town,-33.978623,18.463929,0,0,0,0,0,0,0,0,0,0,0,1,0,0,0,0,0,0,0,0,0,0,0,0,0,0,0,0,0,0,0,0,0,0,0,0,0,0,0,0,0,0,0,0,0,0,0,0,0,0,0,0,0,0,0,0,0,0,0,0,0,0,0,0,0,0,0,0,0,0,0,0
Saucisse Boutique Deli,3.8,Good,39,220,3,"Cafe, Deli, Bakery",3,Old Biscuit Mill,Woodstock,City Bowl,Cape Town,-33.9273583412,18.4569343552,0,0,0,0,1,0,0,0,0,0,0,1,0,0,0,0,0,0,0,0,1,0,0,0,0,0,0,0,0,0,0,0,0,0,0,0,0,0,0,0,0,0,0,0,0,0,0,0,0,0,0,0,0,0,0,0,0,0,0,0,0,0,0,0,0,0,0,0,0,0,0,0
Bean There Coffee Company,3.8,Good,50,150,2,Cafe,1,None,CBD,City Bowl,Cape Town,-33.922810582800004,18.4169171378,0,0,0,0,0,0,0,0,0,0,0,1,0,0,0,0,0,0,0,0,0,0,0,0,0,0,0,0,0,0,0,0,0,0,0,0,0,0,0,0,0,0,0,0,0,0,0,0,0,0,0,0,0,0,0,0,0,0,0,0,0,0,0,0,0,0,0,0,0,0,0,0
Cafe Roux,3.8,Good,67,200,3,Cafe,1,None,Noordhoek,South Peninsula,Cape Town,-34.097169,18.378007,0,0,0,0,0,0,0,0,0,0,0,1,0,0,0,0,0,0,0,0,0,0,0,0,0,0,0,0,0,0,0,0,0,0,0,0,0,0,0,0,0,0,0,0,0,0,0,0,0,0,0,0,0,0,0,0,0,0,0,0,0,0,0,0,0,0,0,0,0,0,0,0
Eight,3.8,Good,34,250,3,Cafe,1,Spier Wine Estate,Stellenbosch,Winelands,Cape Town,-33.973483,18.782533,0,0,0,0,0,0,0,0,0,0,0,1,0,0,0,0,0,0,0,0,0,0,0,0,0,0,0,0,0,0,0,0,0,0,0,0,0,0,0,0,0,0,0,0,0,0,0,0,0,0,0,0,0,0,0,0,0,0,0,0,0,0,0,0,0,0,0,0,0,0,0,0
The General Store,3.8,Good,28,150,2,Cafe,1,None,De Waterkant,City Bowl,Cape Town,-33.918140719499995,18.4212458879,0,0,0,0,0,0,0,0,0,0,0,1,0,0,0,0,0,0,0,0,0,0,0,0,0,0,0,0,0,0,0,0,0,0,0,0,0,0,0,0,0,0,0,0,0,0,0,0,0,0,0,0,0,0,0,0,0,0,0,0,0,0,0,0,0,0,0,0,0,0,0,0
Dias Tavern,3.8,Good,161,250,3,Portuguese,1,None,CBD,City Bowl,Cape Town,-33.9274504234,18.4251478314,0,0,0,0,0,0,0,0,0,0,0,0,0,0,0,0,0,0,0,0,0,0,0,0,0,0,0,0,0,0,0,0,0,0,0,0,0,0,0,0,0,0,0,0,0,0,0,0,0,0,0,0,0,0,0,1,0,0,0,0,0,0,0,0,0,0,0,0,0,0,0,0
Arcade,3.8,Good,81,250,3,"Pizza, Burger, Brazilian, Contemporary, Healthy Food, Italian",6,None,CBD,City Bowl,Cape Town,-33.9240856043,18.414690233800002,0,0,0,0,0,0,0,0,1,0,1,0,0,0,0,0,0,1,0,0,0,0,0,0,0,0,0,0,0,0,0,0,0,0,0,1,0,0,0,0,1,0,0,0,0,0,0,0,0,0,0,0,0,0,1,0,0,0,0,0,0,0,0,0,0,0,0,0,0,0,0,0
Cattle Baron Grill Room and Bar,3.8,Good,51,400,4,Steak,1,None,De Waterkant,City Bowl,Cape Town,-33.9176123704,18.4179021791,0,0,0,0,0,0,0,0,0,0,0,0,0,0,0,0,0,0,0,0,0,0,0,0,0,0,0,0,0,0,0,0,0,0,0,0,0,0,0,0,0,0,0,0,0,0,0,0,0,0,0,0,0,0,0,0,0,0,0,0,0,0,1,0,0,0,0,0,0,0,0,0
Vrede en Lust Winery,3.8,Good,26,50,1,Drinks Only,1,None,Paarl,Winelands,Cape Town,-33.837423,18.953287,0,0,0,0,0,0,0,0,0,0,0,0,0,0,0,0,0,0,0,0,0,0,1,0,0,0,0,0,0,0,0,0,0,0,0,0,0,0,0,0,0,0,0,0,0,0,0,0,0,0,0,0,0,0,0,0,0,0,0,0,0,0,0,0,0,0,0,0,0,0,0,0
Rupert & Rothschild Wines,3.8,Good,22,80,1,Drinks Only,1,None,Paarl,Winelands,Cape Town,-33.835742,18.95222,0,0,0,0,0,0,0,0,0,0,0,0,0,0,0,0,0,0,0,0,0,0,1,0,0,0,0,0,0,0,0,0,0,0,0,0,0,0,0,0,0,0,0,0,0,0,0,0,0,0,0,0,0,0,0,0,0,0,0,0,0,0,0,0,0,0,0,0,0,0,0,0
Bouchon Wine Bar & Bistro,3.8,Good,19,400,4,"French, Mediterranean, Tapas",3,None,CBD,City Bowl,Cape Town,-33.9202065083,18.4185532853,0,0,0,0,0,0,0,0,0,0,0,0,0,0,0,0,0,0,0,0,0,0,0,0,0,0,0,0,0,1,0,0,0,0,0,0,0,0,0,0,0,0,0,0,0,0,0,1,0,0,0,0,0,0,0,0,0,0,0,0,0,0,0,0,0,1,0,0,0,0,0,0
Myog,3.8,Good,35,100,2,Desserts,1,None,Sea Point,Atlantic Seaboard,Cape Town,-33.920767,18.383544,0,0,0,0,0,0,0,0,0,0,0,0,0,0,0,0,0,0,0,0,0,1,0,0,0,0,0,0,0,0,0,0,0,0,0,0,0,0,0,0,0,0,0,0,0,0,0,0,0,0,0,0,0,0,0,0,0,0,0,0,0,0,0,0,0,0,0,0,0,0,0,0
Fish on the Rocks,3.8,Good,129,160,2,"Seafood, Fish and Chips",2,None,Hout Bay,Atlantic Seaboard,Cape Town,-34.055086,18.34792,0,0,0,0,0,0,0,0,0,0,0,0,0,0,0,0,0,0,0,0,0,0,0,0,0,0,0,0,1,0,0,0,0,0,0,0,0,0,0,0,0,0,0,0,0,0,0,0,0,0,0,0,0,0,0,0,0,0,0,1,0,0,0,0,0,0,0,0,0,0,0,0
Nü,3.8,Good,124,200,3,"Healthy Food, Cafe",2,None,Sea Point,Atlantic Seaboard,Cape Town,-33.913271,18.391625,0,0,0,0,0,0,0,0,0,0,0,1,0,0,0,0,0,0,0,0,0,0,0,0,0,0,0,0,0,0,0,0,0,0,0,1,0,0,0,0,0,0,0,0,0,0,0,0,0,0,0,0,0,0,0,0,0,0,0,0,0,0,0,0,0,0,0,0,0,0,0,0
Makaron Restaurant,3.8,Good,41,560,4,"French, Contemporary",2,None,Stellenbosch,Winelands,Cape Town,-33.967682,18.861657,0,0,0,0,0,0,0,0,0,0,0,0,0,0,0,0,0,1,0,0,0,0,0,0,0,0,0,0,0,1,0,0,0,0,0,0,0,0,0,0,0,0,0,0,0,0,0,0,0,0,0,0,0,0,0,0,0,0,0,0,0,0,0,0,0,0,0,0,0,0,0,0
Spier Wine Tasting,3.8,Good,23,60,1,Drinks Only,1,Spier Wine Estate,Stellenbosch,Winelands,Cape Town,-33.973483,18.782533,0,0,0,0,0,0,0,0,0,0,0,0,0,0,0,0,0,0,0,0,0,0,1,0,0,0,0,0,0,0,0,0,0,0,0,0,0,0,0,0,0,0,0,0,0,0,0,0,0,0,0,0,0,0,0,0,0,0,0,0,0,0,0,0,0,0,0,0,0,0,0,0
Catharina's Restaurant - Steenberg Hotel,3.8,Good,67,550,4,European,1,Steenberg Hotel,Constantia,Southern Suburbs,Cape Town,-34.071391,18.425231,0,0,0,0,0,0,0,0,0,0,0,0,0,0,0,0,0,0,0,0,0,0,0,0,0,1,0,0,0,0,0,0,0,0,0,0,0,0,0,0,0,0,0,0,0,0,0,0,0,0,0,0,0,0,0,0,0,0,0,0,0,0,0,0,0,0,0,0,0,0,0,0
Arugula Bistro & Bread,3.8,Good,84,350,4,"French, Italian, Mediterranean",3,None,Bellville,Northern Suburbs,Cape Town,-33.8741922464,18.618234694,0,0,0,0,0,0,0,0,0,0,0,0,0,0,0,0,0,0,0,0,0,0,0,0,0,0,0,0,0,1,0,0,0,0,0,0,0,0,0,0,1,0,0,0,0,0,0,1,0,0,0,0,0,0,0,0,0,0,0,0,0,0,0,0,0,0,0,0,0,0,0,0
French Connection Bistro,3.8,Good,56,464,4,"French, Grill, Burger, European, Steak",5,None,Franschhoek,Winelands,Cape Town,-33.910265,19.118896,0,0,0,0,0,0,0,0,0,0,1,0,0,0,0,0,0,0,0,0,0,0,0,0,0,1,0,0,0,1,0,0,0,0,1,0,0,0,0,0,0,0,0,0,0,0,0,0,0,0,0,0,0,0,0,0,0,0,0,0,0,0,1,0,0,0,0,0,0,0,0,0
The Werf Restaurant,3.8,Good,27,545,4,Grill,1,Boschendal Estate,Franschhoek,Winelands,Cape Town,-33.878134,18.973657,0,0,0,0,0,0,0,0,0,0,0,0,0,0,0,0,0,0,0,0,0,0,0,0,0,0,0,0,0,0,0,0,0,0,1,0,0,0,0,0,0,0,0,0,0,0,0,0,0,0,0,0,0,0,0,0,0,0,0,0,0,0,0,0,0,0,0,0,0,0,0,0
Diemersdal Farm Eatery,3.8,Good,52,400,4,Continental,1,None,Durbanville,Northern Suburbs,Cape Town,-33.802627,18.64632,0,0,0,0,0,0,0,0,0,0,0,0,0,0,0,0,0,0,1,0,0,0,0,0,0,0,0,0,0,0,0,0,0,0,0,0,0,0,0,0,0,0,0,0,0,0,0,0,0,0,0,0,0,0,0,0,0,0,0,0,0,0,0,0,0,0,0,0,0,0,0,0
Mont Marie,3.8,Good,40,480,4,"European, Mediterranean, Cafe",3,None,Stellenbosch,Winelands,Cape Town,-33.9817583333,18.8721111111,0,0,0,0,0,0,0,0,0,0,0,1,0,0,0,0,0,0,0,0,0,0,0,0,0,1,0,0,0,0,0,0,0,0,0,0,0,0,0,0,0,0,0,0,0,0,0,1,0,0,0,0,0,0,0,0,0,0,0,0,0,0,0,0,0,0,0,0,0,0,0,0
Planet Bar & Restaurant - Mount Nelson Hotel,3.8,Good,59,600,4,"European, Mediterranean",2,Mount Nelson Hotel,Gardens,City Bowl,Cape Town,-33.93161,18.412494,0,0,0,0,0,0,0,0,0,0,0,0,0,0,0,0,0,0,0,0,0,0,0,0,0,1,0,0,0,0,0,0,0,0,0,0,0,0,0,0,0,0,0,0,0,0,0,1,0,0,0,0,0,0,0,0,0,0,0,0,0,0,0,0,0,0,0,0,0,0,0,0
Carne on Kloof,3.8,Good,51,500,4,"Italian, Grill",2,None,Gardens,City Bowl,Cape Town,-33.934678,18.407093,0,0,0,0,0,0,0,0,0,0,0,0,0,0,0,0,0,0,0,0,0,0,0,0,0,0,0,0,0,0,0,0,0,0,1,0,0,0,0,0,1,0,0,0,0,0,0,0,0,0,0,0,0,0,0,0,0,0,0,0,0,0,0,0,0,0,0,0,0,0,0,0
Reverie Social Table,3.8,Good,23,1400,4,"South African, International, Contemporary",3,None,Observatory,Southern Suburbs,Cape Town,-33.931277,18.465974,0,0,0,0,0,0,0,0,0,0,0,0,0,0,0,0,0,1,0,0,0,0,0,0,0,0,0,0,0,0,0,0,0,0,0,0,0,0,1,0,0,0,0,0,0,0,0,0,0,0,0,0,0,0,0,0,0,0,0,0,1,0,0,0,0,0,0,0,0,0,0,0
Harbour House Restaurant,3.8,Good,22,500,4,"Seafood, Sushi",2,None,Constantia,Southern Suburbs,Cape Town,-34.012526,18.405392,0,0,0,0,0,0,0,0,0,0,0,0,0,0,0,0,0,0,0,0,0,0,0,0,0,0,0,0,0,0,0,0,0,0,0,0,0,0,0,0,0,0,0,0,0,0,0,0,0,0,0,0,0,0,0,0,0,0,0,1,0,0,0,0,1,0,0,0,0,0,0,0
Brampton Wine Studio,3.8,Good,60,200,3,Finger Food,1,None,Stellenbosch,Winelands,Cape Town,-33.937984,18.86142,0,0,0,0,0,0,0,0,0,0,0,0,0,0,0,0,0,0,0,0,0,0,0,0,0,0,0,1,0,0,0,0,0,0,0,0,0,0,0,0,0,0,0,0,0,0,0,0,0,0,0,0,0,0,0,0,0,0,0,0,0,0,0,0,0,0,0,0,0,0,0,0
Simon's Restaurant,3.8,Good,136,380,4,Contemporary,1,Groot Constantia Wine Estate,Constantia,Southern Suburbs,Cape Town,-34.031212,18.417476,0,0,0,0,0,0,0,0,0,0,0,0,0,0,0,0,0,1,0,0,0,0,0,0,0,0,0,0,0,0,0,0,0,0,0,0,0,0,0,0,0,0,0,0,0,0,0,0,0,0,0,0,0,0,0,0,0,0,0,0,0,0,0,0,0,0,0,0,0,0,0,0
Greek Fisherman,3.8,Good,134,460,4,"Greek, Seafood",2,Victoria Wharf,V & A Waterfront,Atlantic Seaboard,Cape Town,-33.903522,18.420459,0,0,0,0,0,0,0,0,0,0,0,0,0,0,0,0,0,0,0,0,0,0,0,0,0,0,0,0,0,0,0,0,0,1,0,0,0,0,0,0,0,0,0,0,0,0,0,0,0,0,0,0,0,0,0,0,0,0,0,1,0,0,0,0,0,0,0,0,0,0,0,0
La Grapperia,3.8,Good,125,250,3,"Pizza, Italian",2,Spice Route Farm,Paarl,Winelands,Cape Town,-33.760828,18.916703,0,0,0,0,0,0,0,0,0,0,0,0,0,0,0,0,0,0,0,0,0,0,0,0,0,0,0,0,0,0,0,0,0,0,0,0,0,0,0,0,1,0,0,0,0,0,0,0,0,0,0,0,0,0,1,0,0,0,0,0,0,0,0,0,0,0,0,0,0,0,0,0
Delheim,3.8,Good,49,400,4,"African, German",2,None,Stellenbosch,Winelands,Cape Town,-33.87042,18.886173,1,0,0,0,0,0,0,0,0,0,0,0,0,0,0,0,0,0,0,0,0,0,0,0,0,0,0,0,0,0,0,0,1,0,0,0,0,0,0,0,0,0,0,0,0,0,0,0,0,0,0,0,0,0,0,0,0,0,0,0,0,0,0,0,0,0,0,0,0,0,0,0
Paranga,3.8,Good,137,650,4,"Seafood, African, Sushi",3,The Promenade,Camps Bay,Atlantic Seaboard,Cape Town,-33.9526666667,18.377333333299998,1,0,0,0,0,0,0,0,0,0,0,0,0,0,0,0,0,0,0,0,0,0,0,0,0,0,0,0,0,0,0,0,0,0,0,0,0,0,0,0,0,0,0,0,0,0,0,0,0,0,0,0,0,0,0,0,0,0,0,1,0,0,0,0,1,0,0,0,0,0,0,0
Reuben's,3.8,Good,99,500,4,"South African, Seafood",2,None,Franschhoek,Winelands,Cape Town,-33.9120055556,19.1208,0,0,0,0,0,0,0,0,0,0,0,0,0,0,0,0,0,0,0,0,0,0,0,0,0,0,0,0,0,0,0,0,0,0,0,0,0,0,0,0,0,0,0,0,0,0,0,0,0,0,0,0,0,0,0,0,0,0,0,1,1,0,0,0,0,0,0,0,0,0,0,0
La Belle Bistro & Bakery,3.8,Good,94,545,4,"South African, Cafe",2,Alphen 5 Star Boutique Hotel,Constantia,Southern Suburbs,Cape Town,-34.011707,18.451361,0,0,0,0,0,0,0,0,0,0,0,1,0,0,0,0,0,0,0,0,0,0,0,0,0,0,0,0,0,0,0,0,0,0,0,0,0,0,0,0,0,0,0,0,0,0,0,0,0,0,0,0,0,0,0,0,0,0,0,0,1,0,0,0,0,0,0,0,0,0,0,0
Cassia,3.8,Good,121,545,4,"European, Contemporary",2,Nitida Wine Farm,Durbanville,Northern Suburbs,Cape Town,-33.8347444444,18.5937055556,0,0,0,0,0,0,0,0,0,0,0,0,0,0,0,0,0,1,0,0,0,0,0,0,0,1,0,0,0,0,0,0,0,0,0,0,0,0,0,0,0,0,0,0,0,0,0,0,0,0,0,0,0,0,0,0,0,0,0,0,0,0,0,0,0,0,0,0,0,0,0,0
Belthazar,3.8,Good,142,550,4,"Grill, Steak, Seafood",3,Victoria Wharf,V & A Waterfront,Atlantic Seaboard,Cape Town,-33.9043333333,18.4205,0,0,0,0,0,0,0,0,0,0,0,0,0,0,0,0,0,0,0,0,0,0,0,0,0,0,0,0,0,0,0,0,0,0,1,0,0,0,0,0,0,0,0,0,0,0,0,0,0,0,0,0,0,0,0,0,0,0,0,1,0,0,1,0,0,0,0,0,0,0,0,0
The Roundhouse,3.8,Good,69,1500,4,"European, African",2,None,Camps Bay,Atlantic Seaboard,Cape Town,-33.943601,18.384938,1,0,0,0,0,0,0,0,0,0,0,0,0,0,0,0,0,0,0,0,0,0,0,0,0,1,0,0,0,0,0,0,0,0,0,0,0,0,0,0,0,0,0,0,0,0,0,0,0,0,0,0,0,0,0,0,0,0,0,0,0,0,0,0,0,0,0,0,0,0,0,0
Cafe Caprice,3.7,Good,202,350,4,"Burger, Mediterranean",2,None,Camps Bay,Atlantic Seaboard,Cape Town,-33.9523333333,18.3781666667,0,0,0,0,0,0,0,0,0,0,1,0,0,0,0,0,0,0,0,0,0,0,0,0,0,0,0,0,0,0,0,0,0,0,0,0,0,0,0,0,0,0,0,0,0,0,0,1,0,0,0,0,0,0,0,0,0,0,0,0,0,0,0,0,0,0,0,0,0,0,0,0
Cafe Chameleon,3.7,Good,73,300,4,"Cafe, South African, Burger, Pizza",4,Plattekloof Center,Plattekloof,Northern Suburbs,Cape Town,-33.874,18.578333333299998,0,0,0,0,0,0,0,0,0,0,1,1,0,0,0,0,0,0,0,0,0,0,0,0,0,0,0,0,0,0,0,0,0,0,0,0,0,0,0,0,0,0,0,0,0,0,0,0,0,0,0,0,0,0,1,0,0,0,0,0,1,0,0,0,0,0,0,0,0,0,0,0
Bread Milk & Honey,3.7,Good,63,150,2,"Cafe, Juices",2,None,CBD,City Bowl,Cape Town,-33.9252991245,18.4215194732,0,0,0,0,0,0,0,0,0,0,0,1,0,0,0,0,0,0,0,0,0,0,0,0,0,0,0,0,0,0,0,0,0,0,0,0,0,0,0,0,0,0,1,0,0,0,0,0,0,0,0,0,0,0,0,0,0,0,0,0,0,0,0,0,0,0,0,0,0,0,0,0
Lekker,3.7,Good,75,250,3,"Cafe, South African, European",3,Kalk Bay,Bay Area,South Peninsula,Cape Town,-34.12693,18.448839,0,0,0,0,0,0,0,0,0,0,0,1,0,0,0,0,0,0,0,0,0,0,0,0,0,1,0,0,0,0,0,0,0,0,0,0,0,0,0,0,0,0,0,0,0,0,0,0,0,0,0,0,0,0,0,0,0,0,0,0,1,0,0,0,0,0,0,0,0,0,0,0
The Granary Cafe,3.7,Good,25,500,4,"International, French",2,The Silo Hotel,V & A Waterfront,Atlantic Seaboard,Cape Town,-33.908583,18.422714,0,0,0,0,0,0,0,0,0,0,0,0,0,0,0,0,0,0,0,0,0,0,0,0,0,0,0,0,0,1,0,0,0,0,0,0,0,0,1,0,0,0,0,0,0,0,0,0,0,0,0,0,0,0,0,0,0,0,0,0,0,0,0,0,0,0,0,0,0,0,0,0
Charango Grill and Bar,3.7,Good,120,450,4,"Latin American, Grill",2,None,CBD,City Bowl,Cape Town,-33.9220722134,18.4170723706,0,0,0,0,0,0,0,0,0,0,0,0,0,0,0,0,0,0,0,0,0,0,0,0,0,0,0,0,0,0,0,0,0,0,1,0,0,0,0,0,0,0,0,0,1,0,0,0,0,0,0,0,0,0,0,0,0,0,0,0,0,0,0,0,0,0,0,0,0,0,0,0
Woolworths Cafe,3.7,Good,58,230,3,Cafe,1,Canal Walk Mall,Century City,Northern Suburbs,Cape Town,-33.8928333333,18.5106666667,0,0,0,0,0,0,0,0,0,0,0,1,0,0,0,0,0,0,0,0,0,0,0,0,0,0,0,0,0,0,0,0,0,0,0,0,0,0,0,0,0,0,0,0,0,0,0,0,0,0,0,0,0,0,0,0,0,0,0,0,0,0,0,0,0,0,0,0,0,0,0,0
La Parada,3.7,Good,88,360,4,"Spanish, Tapas",2,None,Constantia,Southern Suburbs,Cape Town,-34.012526,18.405392,0,0,0,0,0,0,0,0,0,0,0,0,0,0,0,0,0,0,0,0,0,0,0,0,0,0,0,0,0,0,0,0,0,0,0,0,0,0,0,0,0,0,0,0,0,0,0,0,0,0,0,0,0,0,0,0,0,0,0,0,0,1,0,0,0,1,0,0,0,0,0,0
Peter Falke Wines,3.7,Good,32,300,4,Drinks Only,1,None,Stellenbosch,Winelands,Cape Town,-34.0006411117,18.8329151459,0,0,0,0,0,0,0,0,0,0,0,0,0,0,0,0,0,0,0,0,0,0,1,0,0,0,0,0,0,0,0,0,0,0,0,0,0,0,0,0,0,0,0,0,0,0,0,0,0,0,0,0,0,0,0,0,0,0,0,0,0,0,0,0,0,0,0,0,0,0,0,0
Jerry's Burger Bar,3.7,Good,63,250,3,"Burger, American",2,None,Sea Point,Atlantic Seaboard,Cape Town,-33.909703,18.394782,0,1,0,0,0,0,0,0,0,0,1,0,0,0,0,0,0,0,0,0,0,0,0,0,0,0,0,0,0,0,0,0,0,0,0,0,0,0,0,0,0,0,0,0,0,0,0,0,0,0,0,0,0,0,0,0,0,0,0,0,0,0,0,0,0,0,0,0,0,0,0,0
Mother's Ruin - Gin Bar,3.7,Good,70,220,3,Drinks Only,1,None,CBD,City Bowl,Cape Town,-33.9255984679,18.4133347124,0,0,0,0,0,0,0,0,0,0,0,0,0,0,0,0,0,0,0,0,0,0,1,0,0,0,0,0,0,0,0,0,0,0,0,0,0,0,0,0,0,0,0,0,0,0,0,0,0,0,0,0,0,0,0,0,0,0,0,0,0,0,0,0,0,0,0,0,0,0,0,0
Durbanville Hills Tasting Room,3.7,Good,40,140,2,Contemporary,1,None,Durbanville,Northern Suburbs,Cape Town,-33.825016,18.565975,0,0,0,0,0,0,0,0,0,0,0,0,0,0,0,0,0,1,0,0,0,0,0,0,0,0,0,0,0,0,0,0,0,0,0,0,0,0,0,0,0,0,0,0,0,0,0,0,0,0,0,0,0,0,0,0,0,0,0,0,0,0,0,0,0,0,0,0,0,0,0,0
Klein Roosboom,3.7,Good,25,100,2,"Drinks Only, Finger Food",2,None,Durbanville,Northern Suburbs,Cape Town,-33.82032,18.574666,0,0,0,0,0,0,0,0,0,0,0,0,0,0,0,0,0,0,0,0,0,0,1,0,0,0,0,1,0,0,0,0,0,0,0,0,0,0,0,0,0,0,0,0,0,0,0,0,0,0,0,0,0,0,0,0,0,0,0,0,0,0,0,0,0,0,0,0,0,0,0,0
Orah Bar & Lounge,3.7,Good,23,280,3,"Tapas, Beverages, Sushi, Finger Food",4,None,Century City,Northern Suburbs,Cape Town,-33.894385,18.506856,0,0,0,0,0,0,0,1,0,0,0,0,0,0,0,0,0,0,0,0,0,0,0,0,0,0,0,1,0,0,0,0,0,0,0,0,0,0,0,0,0,0,0,0,0,0,0,0,0,0,0,0,0,0,0,0,0,0,0,0,0,0,0,0,1,1,0,0,0,0,0,0
The Silo Rooftop,3.7,Good,26,220,3,Drinks Only,1,The Silo Hotel,V & A Waterfront,Atlantic Seaboard,Cape Town,-33.908601,18.422725,0,0,0,0,0,0,0,0,0,0,0,0,0,0,0,0,0,0,0,0,0,0,1,0,0,0,0,0,0,0,0,0,0,0,0,0,0,0,0,0,0,0,0,0,0,0,0,0,0,0,0,0,0,0,0,0,0,0,0,0,0,0,0,0,0,0,0,0,0,0,0,0
Blaauwklippen Tasting Room,3.7,Good,22,40,1,"Drinks Only, Beverages, Cafe, Coffee and Tea, Deli, Finger Food, Juices, Tapas",8,None,Stellenbosch,Winelands,Cape Town,-33.9731027778,18.8471944444,0,0,0,0,0,0,0,1,0,0,0,1,0,0,0,0,1,0,0,0,1,0,1,0,0,0,0,1,0,0,0,0,0,0,0,0,0,0,0,0,0,0,1,0,0,0,0,0,0,0,0,0,0,0,0,0,0,0,0,0,0,0,0,0,0,1,0,0,0,0,0,0
Cafe Blanc de Noir,3.7,Good,77,300,4,"European, Beverages, Cafe, Contemporary, Desserts, Italian, Pizza",7,None,Stellenbosch,Winelands,Cape Town,-33.919,18.817833333299998,0,0,0,0,0,0,0,1,0,0,0,1,0,0,0,0,0,1,0,0,0,1,0,0,0,1,0,0,0,0,0,0,0,0,0,0,0,0,0,0,1,0,0,0,0,0,0,0,0,0,0,0,0,0,1,0,0,0,0,0,0,0,0,0,0,0,0,0,0,0,0,0
Mynt Cafe,3.7,Good,91,300,4,"Burger, Mediterranean, Cafe",3,None,Camps Bay,Atlantic Seaboard,Cape Town,-33.950282,18.37882,0,0,0,0,0,0,0,0,0,0,1,1,0,0,0,0,0,0,0,0,0,0,0,0,0,0,0,0,0,0,0,0,0,0,0,0,0,0,0,0,0,0,0,0,0,0,0,1,0,0,0,0,0,0,0,0,0,0,0,0,0,0,0,0,0,0,0,0,0,0,0,0
Newport Market & Deli,3.7,Good,80,210,3,"Cafe, Deli",2,None,Green Point,Atlantic Seaboard,Cape Town,-33.9015831089,18.4001741186,0,0,0,0,0,0,0,0,0,0,0,1,0,0,0,0,0,0,0,0,1,0,0,0,0,0,0,0,0,0,0,0,0,0,0,0,0,0,0,0,0,0,0,0,0,0,0,0,0,0,0,0,0,0,0,0,0,0,0,0,0,0,0,0,0,0,0,0,0,0,0,0
Shimmy Beach Club,3.7,Good,284,450,4,"Seafood, Grill, Pizza",3,None,V & A Waterfront,Atlantic Seaboard,Cape Town,-33.903803,18.429434,0,0,0,0,0,0,0,0,0,0,0,0,0,0,0,0,0,0,0,0,0,0,0,0,0,0,0,0,0,0,0,0,0,0,1,0,0,0,0,0,0,0,0,0,0,0,0,0,0,0,0,0,0,0,1,0,0,0,0,1,0,0,0,0,0,0,0,0,0,0,0,0
Racine,3.7,Good,26,350,4,African,1,None,Franschhoek,Winelands,Cape Town,-33.8992805556,19.1278055556,1,0,0,0,0,0,0,0,0,0,0,0,0,0,0,0,0,0,0,0,0,0,0,0,0,0,0,0,0,0,0,0,0,0,0,0,0,0,0,0,0,0,0,0,0,0,0,0,0,0,0,0,0,0,0,0,0,0,0,0,0,0,0,0,0,0,0,0,0,0,0,0
Indochine Restaurant,3.7,Good,26,500,4,"Thai, Asian",2,Delaire Graff  Estate,Stellenbosch,Winelands,Cape Town,-33.92164,18.923343,0,0,1,0,0,0,0,0,0,0,0,0,0,0,0,0,0,0,0,0,0,0,0,0,0,0,0,0,0,0,0,0,0,0,0,0,0,0,0,0,0,0,0,0,0,0,0,0,0,0,0,0,0,0,0,0,0,0,0,0,0,0,0,0,0,0,0,0,1,0,0,0
Savour - African Pride 15 on Orange Hotel,3.7,Good,33,500,4,"Asian, Mediterranean",2,African Pride 15 on Orange Hotel,CBD,City Bowl,Cape Town,-33.928408,18.414204,0,0,1,0,0,0,0,0,0,0,0,0,0,0,0,0,0,0,0,0,0,0,0,0,0,0,0,0,0,0,0,0,0,0,0,0,0,0,0,0,0,0,0,0,0,0,0,1,0,0,0,0,0,0,0,0,0,0,0,0,0,0,0,0,0,0,0,0,0,0,0,0
Glen Carlou,3.7,Good,30,580,4,"European, Contemporary, French",3,None,Paarl,Winelands,Cape Town,-33.812355,18.903523,0,0,0,0,0,0,0,0,0,0,0,0,0,0,0,0,0,1,0,0,0,0,0,0,0,1,0,0,0,1,0,0,0,0,0,0,0,0,0,0,0,0,0,0,0,0,0,0,0,0,0,0,0,0,0,0,0,0,0,0,0,0,0,0,0,0,0,0,0,0,0,0
Live Bait,3.7,Good,76,500,4,"Seafood, Sushi, European",3,Kalk Bay,Bay Area,South Peninsula,Cape Town,-34.132044,18.446447,0,0,0,0,0,0,0,0,0,0,0,0,0,0,0,0,0,0,0,0,0,0,0,0,0,1,0,0,0,0,0,0,0,0,0,0,0,0,0,0,0,0,0,0,0,0,0,0,0,0,0,0,0,0,0,0,0,0,0,1,0,0,0,0,1,0,0,0,0,0,0,0
Garden Lounge - Vineyard Hotel,3.7,Good,54,350,4,European,1,Vineyard Hotel & Spa,Newlands,Southern Suburbs,Cape Town,-33.978285,18.459997,0,0,0,0,0,0,0,0,0,0,0,0,0,0,0,0,0,0,0,0,0,0,0,0,0,1,0,0,0,0,0,0,0,0,0,0,0,0,0,0,0,0,0,0,0,0,0,0,0,0,0,0,0,0,0,0,0,0,0,0,0,0,0,0,0,0,0,0,0,0,0,0
Bertus Basson at Spice Route,3.7,Good,60,450,4,South African,1,Spice Route Farm,Paarl,Winelands,Cape Town,-33.760864,18.916703,0,0,0,0,0,0,0,0,0,0,0,0,0,0,0,0,0,0,0,0,0,0,0,0,0,0,0,0,0,0,0,0,0,0,0,0,0,0,0,0,0,0,0,0,0,0,0,0,0,0,0,0,0,0,0,0,0,0,0,0,1,0,0,0,0,0,0,0,0,0,0,0
95 Keerom,3.7,Good,97,520,4,"Steak, Grill, Italian",3,None,CBD,City Bowl,Cape Town,-33.9264770181,18.4158677235,0,0,0,0,0,0,0,0,0,0,0,0,0,0,0,0,0,0,0,0,0,0,0,0,0,0,0,0,0,0,0,0,0,0,1,0,0,0,0,0,1,0,0,0,0,0,0,0,0,0,0,0,0,0,0,0,0,0,0,0,0,0,1,0,0,0,0,0,0,0,0,0
Open Door,3.7,Good,67,450,4,Contemporary,1,None,Constantia,Southern Suburbs,Cape Town,-34.047895,18.424152,0,0,0,0,0,0,0,0,0,0,0,0,0,0,0,0,0,1,0,0,0,0,0,0,0,0,0,0,0,0,0,0,0,0,0,0,0,0,0,0,0,0,0,0,0,0,0,0,0,0,0,0,0,0,0,0,0,0,0,0,0,0,0,0,0,0,0,0,0,0,0,0
Kamili Coffee,3.7,Good,40,120,2,Cafe,1,None,CBD,City Bowl,Cape Town,-33.9221211785,18.4196586907,0,0,0,0,0,0,0,0,0,0,0,1,0,0,0,0,0,0,0,0,0,0,0,0,0,0,0,0,0,0,0,0,0,0,0,0,0,0,0,0,0,0,0,0,0,0,0,0,0,0,0,0,0,0,0,0,0,0,0,0,0,0,0,0,0,0,0,0,0,0,0,0
Weltevreden Estate,3.7,Good,44,300,4,"Cafe, Tapas, South African, Contemporary, International",5,None,Stellenbosch,Winelands,Cape Town,-33.900429,18.854451,0,0,0,0,0,0,0,0,0,0,0,1,0,0,0,0,0,1,0,0,0,0,0,0,0,0,0,0,0,0,0,0,0,0,0,0,0,0,1,0,0,0,0,0,0,0,0,0,0,0,0,0,0,0,0,0,0,0,0,0,1,0,0,0,0,1,0,0,0,0,0,0
Oumeul Bakkery,3.7,Good,110,180,2,"Cafe, Bakery",2,None,Bellville,Northern Suburbs,Cape Town,-33.870263277,18.6311719939,0,0,0,0,1,0,0,0,0,0,0,1,0,0,0,0,0,0,0,0,0,0,0,0,0,0,0,0,0,0,0,0,0,0,0,0,0,0,0,0,0,0,0,0,0,0,0,0,0,0,0,0,0,0,0,0,0,0,0,0,0,0,0,0,0,0,0,0,0,0,0,0
Knead,3.7,Good,209,250,3,"Cafe, Bakery",2,None,Gardens,City Bowl,Cape Town,-33.9295,18.4111666667,0,0,0,0,1,0,0,0,0,0,0,1,0,0,0,0,0,0,0,0,0,0,0,0,0,0,0,0,0,0,0,0,0,0,0,0,0,0,0,0,0,0,0,0,0,0,0,0,0,0,0,0,0,0,0,0,0,0,0,0,0,0,0,0,0,0,0,0,0,0,0,0
Postcard Cafe,3.7,Good,120,280,3,"Cafe, Desserts, Bakery, Asian",4,None,Stellenbosch,Winelands,Cape Town,-33.953898,18.910554,0,0,1,0,1,0,0,0,0,0,0,1,0,0,0,0,0,0,0,0,0,1,0,0,0,0,0,0,0,0,0,0,0,0,0,0,0,0,0,0,0,0,0,0,0,0,0,0,0,0,0,0,0,0,0,0,0,0,0,0,0,0,0,0,0,0,0,0,0,0,0,0
Blanko,3.7,Good,24,500,4,Italian,1,Alphen 5 Star Boutique Hotel,Constantia,Southern Suburbs,Cape Town,-34.010804,18.451479,0,0,0,0,0,0,0,0,0,0,0,0,0,0,0,0,0,0,0,0,0,0,0,0,0,0,0,0,0,0,0,0,0,0,0,0,0,0,0,0,1,0,0,0,0,0,0,0,0,0,0,0,0,0,0,0,0,0,0,0,0,0,0,0,0,0,0,0,0,0,0,0
Cafeen,3.7,Good,107,180,2,Cafe,1,None,Claremont,Southern Suburbs,Cape Town,-33.986551,18.477335,0,0,0,0,0,0,0,0,0,0,0,1,0,0,0,0,0,0,0,0,0,0,0,0,0,0,0,0,0,0,0,0,0,0,0,0,0,0,0,0,0,0,0,0,0,0,0,0,0,0,0,0,0,0,0,0,0,0,0,0,0,0,0,0,0,0,0,0,0,0,0,0
Burgundy,3.7,Good,98,250,3,"Cafe, Seafood, Grill",3,None,Hermanus,Overberg,Cape Town,-34.420716,19.242675,0,0,0,0,0,0,0,0,0,0,0,1,0,0,0,0,0,0,0,0,0,0,0,0,0,0,0,0,0,0,0,0,0,0,1,0,0,0,0,0,0,0,0,0,0,0,0,0,0,0,0,0,0,0,0,0,0,0,0,1,0,0,0,0,0,0,0,0,0,0,0,0
Meraki,3.7,Good,90,200,3,"Healthy Food, Bakery, Ice Cream, Patisserie, Burger, Juices, Cafe, Contemporary",8,None,Stellenbosch,Winelands,Cape Town,-33.935267,18.862582,0,0,0,0,1,0,0,0,0,0,1,1,0,0,0,0,0,1,0,0,0,0,0,0,0,0,0,0,0,0,0,0,0,0,0,1,1,0,0,0,0,0,1,0,0,0,0,0,0,0,0,0,0,1,0,0,0,0,0,0,0,0,0,0,0,0,0,0,0,0,0,0
Café Blouberg,3.7,Good,110,250,3,"Cafe, Bakery",2,None,Bloubergstrand,West Coast,Cape Town,-33.802332,18.460279,0,0,0,0,1,0,0,0,0,0,0,1,0,0,0,0,0,0,0,0,0,0,0,0,0,0,0,0,0,0,0,0,0,0,0,0,0,0,0,0,0,0,0,0,0,0,0,0,0,0,0,0,0,0,0,0,0,0,0,0,0,0,0,0,0,0,0,0,0,0,0,0
Cocoa Oola,3.7,Good,111,200,3,Cafe,1,None,Gardens,City Bowl,Cape Town,-33.9336666667,18.4073333333,0,0,0,0,0,0,0,0,0,0,0,1,0,0,0,0,0,0,0,0,0,0,0,0,0,0,0,0,0,0,0,0,0,0,0,0,0,0,0,0,0,0,0,0,0,0,0,0,0,0,0,0,0,0,0,0,0,0,0,0,0,0,0,0,0,0,0,0,0,0,0,0
Cafe Extrablatt,3.7,Good,155,300,4,"European, International, German",3,None,Green Point,Atlantic Seaboard,Cape Town,-33.9083402691,18.410956598800002,0,0,0,0,0,0,0,0,0,0,0,0,0,0,0,0,0,0,0,0,0,0,0,0,0,1,0,0,0,0,0,0,1,0,0,0,0,0,1,0,0,0,0,0,0,0,0,0,0,0,0,0,0,0,0,0,0,0,0,0,0,0,0,0,0,0,0,0,0,0,0,0
Beefcakes,3.7,Good,100,300,4,"American, Burger",2,None,Green Point,Atlantic Seaboard,Cape Town,-33.9142496669,18.4177717566,0,1,0,0,0,0,0,0,0,0,1,0,0,0,0,0,0,0,0,0,0,0,0,0,0,0,0,0,0,0,0,0,0,0,0,0,0,0,0,0,0,0,0,0,0,0,0,0,0,0,0,0,0,0,0,0,0,0,0,0,0,0,0,0,0,0,0,0,0,0,0,0
Vista Marina,3.7,Good,27,630,4,"Seafood, Mediterranean, Tapas, Grill",4,None,V & A Waterfront,Atlantic Seaboard,Cape Town,-33.9081143249,18.418037965899998,0,0,0,0,0,0,0,0,0,0,0,0,0,0,0,0,0,0,0,0,0,0,0,0,0,0,0,0,0,0,0,0,0,0,1,0,0,0,0,0,0,0,0,0,0,0,0,1,0,0,0,0,0,0,0,0,0,0,0,1,0,0,0,0,0,1,0,0,0,0,0,0
Jack Black Brewing Company,3.7,Good,26,180,2,"Burger, Deli",2,None,Diep River,Southern Suburbs,Cape Town,-34.0396486128,18.479797101,0,0,0,0,0,0,0,0,0,0,1,0,0,0,0,0,0,0,0,0,1,0,0,0,0,0,0,0,0,0,0,0,0,0,0,0,0,0,0,0,0,0,0,0,0,0,0,0,0,0,0,0,0,0,0,0,0,0,0,0,0,0,0,0,0,0,0,0,0,0,0,0
Pirates Steakhouse & Pub,3.7,Good,65,350,4,"Steak, Grill",2,None,Plumstead,Southern Suburbs,Cape Town,-34.0211666667,18.4675,0,0,0,0,0,0,0,0,0,0,0,0,0,0,0,0,0,0,0,0,0,0,0,0,0,0,0,0,0,0,0,0,0,0,1,0,0,0,0,0,0,0,0,0,0,0,0,0,0,0,0,0,0,0,0,0,0,0,0,0,0,0,1,0,0,0,0,0,0,0,0,0
The Fat Cactus,3.7,Good,174,350,4,"Mexican, Finger Food",2,None,Mowbray,Southern Suburbs,Cape Town,-33.9493333333,18.4795,0,0,0,0,0,0,0,0,0,0,0,0,0,0,0,0,0,0,0,0,0,0,0,0,0,0,0,1,0,0,0,0,0,0,0,0,0,0,0,0,0,0,0,0,0,0,0,0,1,0,0,0,0,0,0,0,0,0,0,0,0,0,0,0,0,0,0,0,0,0,0,0
Foresters Arms,3.7,Good,238,300,4,"Pizza, Grill",2,None,Newlands,Southern Suburbs,Cape Town,-33.97161,18.454091,0,0,0,0,0,0,0,0,0,0,0,0,0,0,0,0,0,0,0,0,0,0,0,0,0,0,0,0,0,0,0,0,0,0,1,0,0,0,0,0,0,0,0,0,0,0,0,0,0,0,0,0,0,0,1,0,0,0,0,0,0,0,0,0,0,0,0,0,0,0,0,0
La Parada,3.7,Good,284,360,4,"Spanish, Tapas",2,None,CBD,City Bowl,Cape Town,-33.9215433321,18.4178931266,0,0,0,0,0,0,0,0,0,0,0,0,0,0,0,0,0,0,0,0,0,0,0,0,0,0,0,0,0,0,0,0,0,0,0,0,0,0,0,0,0,0,0,0,0,0,0,0,0,0,0,0,0,0,0,0,0,0,0,0,0,1,0,0,0,1,0,0,0,0,0,0
Hudsons The Burger Joint,3.7,Good,439,350,4,"Burger, Finger Food",2,None,Green Point,Atlantic Seaboard,Cape Town,-33.9091051916,18.4126758948,0,0,0,0,0,0,0,0,0,0,1,0,0,0,0,0,0,0,0,0,0,0,0,0,0,0,0,1,0,0,0,0,0,0,0,0,0,0,0,0,0,0,0,0,0,0,0,0,0,0,0,0,0,0,0,0,0,0,0,0,0,0,0,0,0,0,0,0,0,0,0,0
Lust,3.7,Good,56,350,4,"Cafe, Bakery",2,None,Franschhoek,Winelands,Cape Town,-33.837409,18.953228,0,0,0,0,1,0,0,0,0,0,0,1,0,0,0,0,0,0,0,0,0,0,0,0,0,0,0,0,0,0,0,0,0,0,0,0,0,0,0,0,0,0,0,0,0,0,0,0,0,0,0,0,0,0,0,0,0,0,0,0,0,0,0,0,0,0,0,0,0,0,0,0
Dolce Bakery,3.7,Good,45,140,2,"Cafe, Bakery",2,None,Observatory,Southern Suburbs,Cape Town,-33.934892,18.467185,0,0,0,0,1,0,0,0,0,0,0,1,0,0,0,0,0,0,0,0,0,0,0,0,0,0,0,0,0,0,0,0,0,0,0,0,0,0,0,0,0,0,0,0,0,0,0,0,0,0,0,0,0,0,0,0,0,0,0,0,0,0,0,0,0,0,0,0,0,0,0,0
Coimbra Bakery,3.7,Good,31,150,2,"Healthy Food, Bakery, Burger, Cafe, Finger Food, Portuguese, German, Deli",8,None,Claremont,Southern Suburbs,Cape Town,-33.983599,18.480127,0,0,0,0,1,0,0,0,0,0,1,1,0,0,0,0,0,0,0,0,1,0,0,0,0,0,0,1,0,0,0,0,1,0,0,1,0,0,0,0,0,0,0,0,0,0,0,0,0,0,0,0,0,0,0,1,0,0,0,0,0,0,0,0,0,0,0,0,0,0,0,0
Billy Boo's Cakery,3.7,Good,26,130,2,"Cafe, Patisserie, Bakery",3,None,Observatory,Southern Suburbs,Cape Town,-33.9382,18.469191,0,0,0,0,1,0,0,0,0,0,0,1,0,0,0,0,0,0,0,0,0,0,0,0,0,0,0,0,0,0,0,0,0,0,0,0,0,0,0,0,0,0,0,0,0,0,0,0,0,0,0,0,0,1,0,0,0,0,0,0,0,0,0,0,0,0,0,0,0,0,0,0
Idiom Wines,3.7,Good,18,290,3,"Italian, South African",2,None,Somerset West,Helderberg,Cape Town,-34.104599,18.940715,0,0,0,0,0,0,0,0,0,0,0,0,0,0,0,0,0,0,0,0,0,0,0,0,0,0,0,0,0,0,0,0,0,0,0,0,0,0,0,0,1,0,0,0,0,0,0,0,0,0,0,0,0,0,0,0,0,0,0,0,1,0,0,0,0,0,0,0,0,0,0,0
The Vue Sky Bar Lounge,3.7,Good,60,400,4,Tapas,1,None,Green Point,Atlantic Seaboard,Cape Town,-33.917524451,18.4182532132,0,0,0,0,0,0,0,0,0,0,0,0,0,0,0,0,0,0,0,0,0,0,0,0,0,0,0,0,0,0,0,0,0,0,0,0,0,0,0,0,0,0,0,0,0,0,0,0,0,0,0,0,0,0,0,0,0,0,0,0,0,0,0,0,0,1,0,0,0,0,0,0
L'avenir Wine Estate,3.7,Good,16,80,1,"Drinks Only, Finger Food",2,None,Stellenbosch,Winelands,Cape Town,-33.888256,18.849439,0,0,0,0,0,0,0,0,0,0,0,0,0,0,0,0,0,0,0,0,0,0,1,0,0,0,0,1,0,0,0,0,0,0,0,0,0,0,0,0,0,0,0,0,0,0,0,0,0,0,0,0,0,0,0,0,0,0,0,0,0,0,0,0,0,0,0,0,0,0,0,0
Arra Vineyards,3.7,Good,16,80,1,Drinks Only,1,None,Stellenbosch,Winelands,Cape Town,-33.823718,18.86257,0,0,0,0,0,0,0,0,0,0,0,0,0,0,0,0,0,0,0,0,0,0,1,0,0,0,0,0,0,0,0,0,0,0,0,0,0,0,0,0,0,0,0,0,0,0,0,0,0,0,0,0,0,0,0,0,0,0,0,0,0,0,0,0,0,0,0,0,0,0,0,0
Hoghouse BBQ & Bakery at Spier,3.7,Good,33,240,3,"Bakery, American, Grill",3,Spier Wine Estate,Stellenbosch,Winelands,Cape Town,-33.973438,18.782544,0,1,0,0,1,0,0,0,0,0,0,0,0,0,0,0,0,0,0,0,0,0,0,0,0,0,0,0,0,0,0,0,0,0,1,0,0,0,0,0,0,0,0,0,0,0,0,0,0,0,0,0,0,0,0,0,0,0,0,0,0,0,0,0,0,0,0,0,0,0,0,0
Tables @ Nitida,3.7,Good,104,350,4,European,1,Nitida Wine Farm,Durbanville,Northern Suburbs,Cape Town,-33.8347444444,18.5937055556,0,0,0,0,0,0,0,0,0,0,0,0,0,0,0,0,0,0,0,0,0,0,0,0,0,1,0,0,0,0,0,0,0,0,0,0,0,0,0,0,0,0,0,0,0,0,0,0,0,0,0,0,0,0,0,0,0,0,0,0,0,0,0,0,0,0,0,0,0,0,0,0
Mulderbosch Tasting Room,3.7,Good,49,300,4,"Pizza, Burger",2,None,Stellenbosch,Winelands,Cape Town,-33.9487027778,18.7657472222,0,0,0,0,0,0,0,0,0,0,1,0,0,0,0,0,0,0,0,0,0,0,0,0,0,0,0,0,0,0,0,0,0,0,0,0,0,0,0,0,0,0,0,0,0,0,0,0,0,0,0,0,0,0,1,0,0,0,0,0,0,0,0,0,0,0,0,0,0,0,0,0
Guardian Peak,3.7,Good,64,300,4,"African, Steak",2,None,Stellenbosch,Winelands,Cape Town,-34.011172222199995,18.842255555599998,1,0,0,0,0,0,0,0,0,0,0,0,0,0,0,0,0,0,0,0,0,0,0,0,0,0,0,0,0,0,0,0,0,0,0,0,0,0,0,0,0,0,0,0,0,0,0,0,0,0,0,0,0,0,0,0,0,0,0,0,0,0,1,0,0,0,0,0,0,0,0,0
Cape Point Vineyards,3.7,Good,55,400,4,Italian,1,None,Noordhoek,South Peninsula,Cape Town,-34.099202,18.382851,0,0,0,0,0,0,0,0,0,0,0,0,0,0,0,0,0,0,0,0,0,0,0,0,0,0,0,0,0,0,0,0,0,0,0,0,0,0,0,0,1,0,0,0,0,0,0,0,0,0,0,0,0,0,0,0,0,0,0,0,0,0,0,0,0,0,0,0,0,0,0,0
Dornier Bodega Restaurant,3.7,Good,48,350,4,"Tapas, Contemporary",2,None,Stellenbosch,Winelands,Cape Town,-33.9925527778,18.8712,0,0,0,0,0,0,0,0,0,0,0,0,0,0,0,0,0,1,0,0,0,0,0,0,0,0,0,0,0,0,0,0,0,0,0,0,0,0,0,0,0,0,0,0,0,0,0,0,0,0,0,0,0,0,0,0,0,0,0,0,0,0,0,0,0,1,0,0,0,0,0,0
